TreeID,qLegalStatus,qSpecies,qAddress,SiteOrder,qSiteInfo,qCaretaker,PlantDate,DBH,PlotSize,Latitude,Longitude
133773,DPW Maintained,Platanus x hispanica :: Sycamore: London Plane,2460 Scott St,1,Sidewalk: Curb side : Cutout,Private,,16,Width 4ft,37.79246726,-122.4395335
209974,DPW Maintained,Metrosideros excelsa :: New Zealand Xmas Tree,634 Miramar Ave,1,Sidewalk: Curb side : Cutout,Private,,6,Width 3ft,37.72831263,-122.4581057
9999,DPW Maintained,Ficus microcarpa nitida 'Green Gem' :: Indian Laurel Fig Tree 'Green Gem',126 Guerrero St,1,Sidewalk: Curb side : Cutout,DPW,,18,5x12,37.76921223,-122.4246565
29149,DPW Maintained,Lophostemon confertus :: Brisbane Box,301X Jones St,1,Sidewalk: Curb side : Cutout,DPW,6/13/15 0:00,3,3x3,37.7839498,-122.4126863
134799,DPW Maintained,Platanus x hispanica :: Sycamore: London Plane,1070 Lombard St,3,Sidewalk: Curb side : Yard,Private,,9,,37.80213141,-122.4191471
30326,DPW Maintained,Tristaniopsis laurina :: Swamp Myrtle,946 Capitol Ave,1,Sidewalk: Curb side : Cutout,Private,10/13/17 11:13,3,,37.71906925,-122.4591242
177625,DPW Maintained,Metrosideros excelsa :: New Zealand Xmas Tree,600 Italy Ave,2,Sidewalk: Curb side : Cutout,Private,,8,Width 2ft,37.71603005,-122.4345534
106947,DPW Maintained,Prunus cerasifera :: Cherry Plum,2710 Baker St,2,Sidewalk: Curb side : Cutout,Private,7/2/14 0:00,1,3x3,37.79606292,-122.4453857
123907,DPW Maintained,Pittosporum undulatum :: Victorian Box,151 10th Ave,1,Sidewalk: Curb side : Cutout,Private,,17,Width 4ft,37.78551,-122.4689918
212470,DPW Maintained,Prunus cerasifera :: Cherry Plum,101 Wildwood Way,2,Sidewalk: Curb side : Cutout,Private,,6,Width 2ft,37.72754695,-122.4563102
238522,DPW Maintained,Prunus serrulata 'Kwanzan' :: Kwanzan Flowering Cherry,116 Moffitt St,1,Sidewalk: Curb side : Cutout,Private,,10,Width 3ft,37.73743517,-122.4330686
246246,DPW Maintained,Pittosporum undulatum :: Victorian Box,90 Frederick St,1,Sidewalk: Curb side : Cutout,Private,,11,Width 0ft,37.76753847,-122.4443178
46353,DPW Maintained,Magnolia grandiflora :: Southern Magnolia,2900 Washington St,2,Sidewalk: Curb side : Cutout,Private,2/27/02 0:00,8,,37.79078673,-122.4412931
21565,DPW Maintained,Platanus x hispanica :: Sycamore: London Plane,1458 Sutter St,1,Sidewalk: Curb side : Cutout,DPW,,18,4X4,37.78729185,-122.4243405
241428,DPW Maintained,Tristaniopsis laurina :: Swamp Myrtle,814 Duncan St,1,Sidewalk: Curb side : Cutout,Private,,4,Width 2ft,37.74547208,-122.4382894
19262,DPW Maintained,Pittosporum undulatum :: Victorian Box,1335 Scott St,1,Sidewalk: Curb side : Cutout,Private,,18,4X4,37.78219531,-122.4376084
4221,DPW Maintained,Platanus x hispanica :: Sycamore: London Plane,3969 Cesar Chavez St,1,Sidewalk: Curb side : Cutout,DPW,,18,3X3,37.7475408,-122.4285472
3015,DPW Maintained,Platanus x hispanica :: Sycamore: London Plane,2451X California St,1,Sidewalk: Curb side : Cutout,DPW,,25,2X2,37.78873184,-122.4346644
183551,DPW Maintained,Metrosideros excelsa :: New Zealand Xmas Tree,1200 Vicente St,1,Sidewalk: Curb side : Cutout,Private,,16,Width 0ft,37.73920093,-122.4798918
230477,DPW Maintained,Magnolia grandiflora :: Southern Magnolia,730 Florida St,5,Sidewalk: Curb side : Cutout,Private,,3,Width 3ft,37.75985952,-122.4110098
201010,DPW Maintained,Lophostemon confertus :: Brisbane Box,2290 03rd St,1,Sidewalk: Curb side : Cutout,Private,,2,Width 2ft,37.76098758,-122.3887564
235173,DPW Maintained,Pittosporum undulatum :: Victorian Box,4044 22nd St,1,Sidewalk: Curb side : Cutout,Private,,20,Width 3ft,37.75437628,-122.4373414
84674,Permitted Site,Prunus serrulata 'Kwanzan' :: Kwanzan Flowering Cherry,4045 24th St,1,Sidewalk: Curb side : Cutout,Private,12/27/12 0:00,4,3x3,37.75130564,-122.4328702
10331,Permitted Site,Prunus serrulata 'Kwanzan' :: Kwanzan Flowering Cherry,838 Haight St,1,Sidewalk: Curb side : Cutout,Private,4/12/07 0:00,8,5x5,37.77167675,-122.4361039
222075,DPW Maintained,Arbutus 'Marina' :: Hybrid Strawberry Tree,250 14th St,3,Sidewalk: Curb side : Cutout,Private,,7,Width 3ft,37.76842185,-122.4186009
14053,DPW Maintained,Platanus x hispanica :: Sycamore: London Plane,1355 Market St,9,Sidewalk: Curb side : Cutout,DPW,,3,4X4,37.77713184,-122.4165543
26049,DPW Maintained,Tristaniopsis laurina :: Swamp Myrtle,136 Broad St,1,Sidewalk: Curb side : Cutout,Private,3/10/07 0:00,3,3X3,37.71326115,-122.4573902
180021,DPW Maintained,Tristaniopsis laurina :: Swamp Myrtle,1800x Alemany Blvd,10,Median : Cutout,DPW,,4,Width 2ft,37.72315339,-122.4376889
130905,DPW Maintained,Magnolia grandiflora :: Southern Magnolia,1000 Jones St,2,Sidewalk: Curb side : Cutout,Private,,3,Width 3ft,37.79064605,-122.4138759
182517,DPW Maintained,Pittosporum undulatum :: Victorian Box,1610 Lawton St,2,Sidewalk: Curb side : Cutout,Private,,14,Width 0ft,37.75789278,-122.4801738
195389,DPW Maintained,Platanus x hispanica :: Sycamore: London Plane,190x Beale St,4,Sidewalk: Curb side : Cutout,Private,,8,Width 4ft,37.79001781,-122.3945589
235760,DPW Maintained,Prunus cerasifera :: Cherry Plum,1348 Vermont St,1,Sidewalk: Curb side : Cutout,Private,,6,Width 3ft,37.75252768,-122.4034456
86344,DPW Maintained,Arbutus 'Marina' :: Hybrid Strawberry Tree,2363 25th Ave,1,Sidewalk: Curb side : Cutout,DPW,12/18/06 0:00,3,3x3,37.74347936,-122.4822505
229157,DPW Maintained,Lophostemon confertus :: Brisbane Box,3195 26th St,1,Sidewalk: Curb side : Cutout,Private,,5,Width 3ft,37.74925584,-122.4135009
5922,Permitted Site,Lophostemon confertus :: Brisbane Box,1300X Eddy St,5,Sidewalk: Curb side : Cutout,Private,5/7/92 0:00,12,4X4,37.78206203,-122.4296075
116000,DPW Maintained,Ficus microcarpa nitida 'Green Gem' :: Indian Laurel Fig Tree 'Green Gem',1454 Jones St,4,Sidewalk: Curb side : Cutout,Private,,11,3x3,37.7948974,-122.4147282
241998,DPW Maintained,Tristaniopsis laurina :: Swamp Myrtle,1138 Alabama St,1,Sidewalk: Curb side : Cutout,Private,,3,Width 3ft,37.7536703,-122.411132
244463,DPW Maintained,Pittosporum undulatum :: Victorian Box,406 Steiner St,3,Sidewalk: Curb side : Cutout,Private,,6,Width 0ft,37.77309617,-122.4322512
115134,Permitted Site,Lophostemon confertus :: Brisbane Box,499X MAIN ST,12,Sidewalk: Curb side : Cutout,Private,,10,,37.78724942,-122.3889664
16957,DPW Maintained,Tristaniopsis laurina :: Swamp Myrtle,673 Oak St,2,Sidewalk: Curb side : Cutout,DPW,1/25/08 0:00,3,3X3,37.77398518,-122.4301281
179052,DPW Maintained,Prunus serrulata 'Kwanzan' :: Kwanzan Flowering Cherry,35 Delano Ave,2,Sidewalk: Curb side : Cutout,Private,,3,Width 3ft,37.72733098,-122.4398464
67486,DPW Maintained,Pittosporum undulatum :: Victorian Box,617 Wisconsin St,1,Sidewalk: Curb side : Cutout,Private,9/8/92 0:00,6,,37.75926202,-122.3990347
92244,DPW Maintained,Tristaniopsis laurina :: Swamp Myrtle,1510 32nd Ave,2,Sidewalk: Curb side : Cutout,Private,7/23/09 0:00,1,3x3,37.75896284,-122.4907049
15201,DPW Maintained,Lophostemon confertus :: Brisbane Box,1120 Mission St,4,Sidewalk: Curb side : Cutout,DPW,4/12/95 0:00,6,3X3,37.77888219,-122.4114764
250909,DPW Maintained,Pittosporum undulatum :: Victorian Box,283 29th Ave,1,Sidewalk: Curb side : Yard,Private,,13,Width 4ft,37.78402696,-122.4893957
1509,DPW Maintained,Pittosporum undulatum :: Victorian Box,364 Arguello Blvd,1,Sidewalk: Curb side : Cutout,DPW,10/15/96 0:00,9,3X3,37.78454089,-122.4587286
120100,DPW Maintained,Tristaniopsis laurina :: Swamp Myrtle,2533 Lake St,1,Sidewalk: Curb side : Cutout,Private,,4,Width 3ft,37.78558961,-122.4868639
202410,DPW Maintained,Lophostemon confertus :: Brisbane Box,300 Beale St,3,Sidewalk: Curb side : Cutout,Private,,13,Width 3ft,37.78838258,-122.3925036
22038,DPW Maintained,Lophostemon confertus :: Brisbane Box,2895 03rd St,6,Sidewalk: Curb side : Cutout,DPW,2/14/95 0:00,3,3X3,37.75340073,-122.3876708
95145,DPW Maintained,Metrosideros excelsa :: New Zealand Xmas Tree,3738 Geary Blvd,1,Sidewalk: Curb side : Cutout,Private,,4,3x3,37.78137546,-122.4596769
57164,DPW Maintained,Pittosporum undulatum :: Victorian Box,2989 Jackson St,1,Sidewalk: Curb side : Cutout,Private,10/26/74 0:00,15,,37.79116984,-122.4443019
214907,DPW Maintained,Tristaniopsis laurina :: Swamp Myrtle,334 San Leandro Way,2,Sidewalk: Curb side : Cutout,Private,,7,Width 3ft,37.7311353,-122.4688466
10479,DPW Maintained,Lophostemon confertus :: Brisbane Box,1654 Haight St,1,Sidewalk: Curb side : Cutout,DPW,12/2/07 0:00,12,3X3,37.769751,-122.4494797
126869,Prune Opt Out,Ficus microcarpa nitida 'Green Gem' :: Indian Laurel Fig Tree 'Green Gem',45 Walnut St,2,Sidewalk: Curb side : Cutout,Private,,14,Width 2ft,37.79081471,-122.4493157
1562,DPW Maintained,Pittosporum undulatum :: Victorian Box,561 Arguello Blvd,1,Sidewalk: Curb side : Cutout,Private,,30,3X3,37.78004905,-122.4588994
63002,DPW Maintained,Magnolia grandiflora :: Southern Magnolia,1247 42nd Ave,1,Sidewalk: Curb side : Cutout,Private,9/22/86 0:00,2,,37.76335092,-122.5019086
13911,DPW Maintained,Platanus x hispanica :: Sycamore: London Plane,1067 Market St,2,Sidewalk: Curb side : Cutout,DPW,,30,4X4,37.78097423,-122.4116357
129971,DPW Maintained,Lophostemon confertus :: Brisbane Box,245 Taylor St,2,Sidewalk: Curb side : Cutout,Private,,7,Width 4ft,37.78486671,-122.4111954
237489,DPW Maintained,Prunus cerasifera :: Cherry Plum,964 Noe St,1,Sidewalk: Curb side : Cutout,Private,,5,Width 3ft,37.75350724,-122.4321583
256115,Planning Code 138.1 required,Arbutus 'Marina' :: Hybrid Strawberry Tree,503 Anderson St,1,Sidewalk: Curb side : Cutout,Private,9/12/18 0:00,3,3x3,37.73711377,-122.4152742
8671,DPW Maintained,Tristaniopsis laurina :: Swamp Myrtle,2900 Geary Blvd,3,Sidewalk: Curb side : Cutout,Private,2/22/96 0:00,7,3X3,37.78220247,-122.4504931
130799,DPW Maintained,Magnolia grandiflora :: Southern Magnolia,2624 Steiner St,2,Sidewalk: Curb side : Yard,Private,,7,Width 4ft,37.79334342,-122.4363424
214981,DPW Maintained,Tristaniopsis laurina :: Swamp Myrtle,89 Agua Way,1,Sidewalk: Curb side : Cutout,Private,,8,Width 2ft,37.74205447,-122.4533484
56411,DPW Maintained,Ficus microcarpa nitida 'Green Gem' :: Indian Laurel Fig Tree 'Green Gem',118 18th Ave,1,Sidewalk: Curb side : Cutout,Private,8/20/73 0:00,14,,37.78564138,-122.4775333
225353,DPW Maintained,Ficus microcarpa nitida 'Green Gem' :: Indian Laurel Fig Tree 'Green Gem',133 Otis St,4,Sidewalk: Curb side : Cutout,Private,,15,Width 3ft,37.77194267,-122.4199675
72939,DPW Maintained,Ficus microcarpa nitida 'Green Gem' :: Indian Laurel Fig Tree 'Green Gem',1941 Lyon St,1,Sidewalk: Curb side : Cutout,Private,,5,,37.78893169,-122.445781
241653,DPW Maintained,Tristaniopsis laurina :: Swamp Myrtle,145 Albion St,3,Sidewalk: Curb side : Cutout,Private,,3,Width 5ft,37.76407346,-122.4227089
235870,Permitted Site,Prunus cerasifera :: Cherry Plum,619 York St,1,Sidewalk: Curb side : Cutout,Private,5/10/94 0:00,7,Width 3ft,37.76124092,-122.4089886
126903,DPW Maintained,Ficus microcarpa nitida 'Green Gem' :: Indian Laurel Fig Tree 'Green Gem',145 Presidio Ave,2,Sidewalk: Curb side : Cutout,Private,,11,Width 5ft,37.79018763,-122.4474717
26766,DPW Maintained,Lophostemon confertus :: Brisbane Box,1661 Pine St,13,Sidewalk: Curb side : Cutout,Private,,8,3X3,37.78926544,-122.422703
86159,DPW Maintained,Arbutus 'Marina' :: Hybrid Strawberry Tree,1235 24th Ave,1,Sidewalk: Curb side : Cutout,DPW,1/19/07 0:00,3,3x3,37.7644623,-122.4826285
192141,DPW Maintained,Ficus microcarpa nitida 'Green Gem' :: Indian Laurel Fig Tree 'Green Gem',609 Minna St,4,Sidewalk: Curb side : Cutout,Private,,13,Width 3ft,37.77859678,-122.4105859
141185,DPW Maintained,Metrosideros excelsa :: New Zealand Xmas Tree,1953 O'Farrell St,2,Sidewalk: Curb side : Cutout,Private,,13,Width 0ft,37.78268237,-122.4368343
202002,DPW Maintained,Platanus x hispanica :: Sycamore: London Plane,200 Paul Ave,5,Sidewalk: Curb side : Cutout,Private,,4,Width 3ft,37.72303938,-122.3981014
37189,DPW Maintained,Pittosporum undulatum :: Victorian Box,1486 30th Ave,1,Sidewalk: Curb side : Cutout,Private,4/12/01 0:00,5,,37.75957389,-122.488576
133580,DPW Maintained,Platanus x hispanica :: Sycamore: London Plane,3421 Pacific Ave,2,Sidewalk: Curb side : Cutout,Private,,8,Width 2ft,37.791052,-122.451467
217857,DPW Maintained,Prunus cerasifera :: Cherry Plum,1447 Willard St,1,Sidewalk: Curb side : Cutout,Private,,5,Width 3ft,37.76346939,-122.4542067
212485,DPW Maintained,Prunus cerasifera :: Cherry Plum,279 Pacheco St,3,Sidewalk: Curb side : Yard,Private,,4,Width 4ft,37.74785568,-122.4625385
120030,DPW Maintained,Pittosporum undulatum :: Victorian Box,5250 Fulton St,5,Sidewalk: Property side : Yard,Private,,9,Width 6ft,37.77248638,-122.4882967
72442,DPW Maintained,Ficus microcarpa nitida 'Green Gem' :: Indian Laurel Fig Tree 'Green Gem',640 Mason St,1,Sidewalk: Curb side : Cutout,Private,,6,,37.78959419,-122.4102896
113643,Planning Code 138.1 required,Lophostemon confertus :: Brisbane Box,1400 MISSION ST,5,Sidewalk: Curb side : Cutout,Private,2/9/16 0:00,3,4x6,37.77527096,-122.4159838
250424,DPW Maintained,Metrosideros excelsa :: New Zealand Xmas Tree,66 Seacliff Ave,1,Sidewalk: Curb side : Yard,Private,,16,Width 4ft,37.78895714,-122.4859748
193155,DPW Maintained,Magnolia grandiflora :: Southern Magnolia,33 Clementina St,3,Sidewalk: Curb side : Cutout,Private,,3,Width 2ft,37.78696711,-122.3958714
5026,DPW Maintained,Metrosideros excelsa :: New Zealand Xmas Tree,5320 Diamond Heights Blvd,10,Sidewalk: Curb side : Cutout,Private,1/6/92 0:00,3,2X2,37.74277322,-122.436671
225318,DPW Maintained,Ficus microcarpa nitida 'Green Gem' :: Indian Laurel Fig Tree 'Green Gem',25 Fillmore St,1,Sidewalk: Curb side : Cutout,Private,,17,Width 3ft,37.76973265,-122.4300587
184542,Permitted Site,Metrosideros excelsa :: New Zealand Xmas Tree,1701 40th Ave,1,Sidewalk: Curb side : Cutout,Private,2/13/18 0:00,3,3x3,37.75497106,-122.4991718
193286,DPW Maintained,Magnolia grandiflora :: Southern Magnolia,1333 Hudson Ave,15,Sidewalk: Curb side : Cutout,Private,,1,Width 3ft,37.7323563,-122.3801837
138667,DPW Maintained,Magnolia grandiflora :: Southern Magnolia,1723 LYON ST,1,Sidewalk: Curb side : Pot,Private,,12,Width 0ft,37.7868166,-122.4453794
24492,Permitted Site,Lophostemon confertus :: Brisbane Box,495X Fell St,6,Sidewalk: Curb side : Cutout,Private,6/24/95 0:00,6,3X3,37.77560902,-122.4249888
177596,DPW Maintained,Metrosideros excelsa :: New Zealand Xmas Tree,2969 Alemany Blvd,1,Sidewalk: Curb side : Cutout,DPW,1/30/18 0:00,17,Width 2ft,37.71136852,-122.4526619
234164,DPW Maintained,Pittosporum undulatum :: Victorian Box,1800 Alabama St,1,Sidewalk: Curb side : Yard,Private,,3,Width 3ft,37.74422314,-122.4104706
119551,DPW Maintained,Metrosideros excelsa :: New Zealand Xmas Tree,601 30th Ave,29,Sidewalk: Curb side : Cutout,Private,,4,Width 3ft,37.77738951,-122.4899942
131545,DPW Maintained,Metrosideros excelsa :: New Zealand Xmas Tree,1338 Clay St,2,Sidewalk: Curb side : Cutout,Private,,11,Width 3ft,37.79324076,-122.4147408
49525,DPW Maintained,Lophostemon confertus :: Brisbane Box,575@ DIVISION 10th St,4,Sidewalk: Curb side : Cutout,Private,4/23/03 0:00,7,,37.76969642,-122.4087483
128731,DPW Maintained,Ficus microcarpa nitida 'Green Gem' :: Indian Laurel Fig Tree 'Green Gem',565 Pacific Ave,3,Sidewalk: Curb side : Cutout,Private,,11,Width 3ft,37.79710577,-122.4048519
111250,DPW Maintained,Metrosideros excelsa :: New Zealand Xmas Tree,3121x Vicente St,1,Sidewalk: Curb side : Cutout,Private,,6,3x3,37.73810025,-122.5004466
178719,DPW Maintained,Prunus cerasifera :: Cherry Plum,101 Prague St,3,Sidewalk: Curb side : Cutout,Private,,6,Width 2ft,37.72024975,-122.4261221
235659,DPW Maintained,Prunus cerasifera :: Cherry Plum,2 Brosnan St,3,Sidewalk: Curb side : Cutout,Private,,5,Width 2ft,37.76876129,-122.4226108
101320,Undocumented,Ficus microcarpa nitida 'Green Gem' :: Indian Laurel Fig Tree 'Green Gem',6-8 Steiner St,1,Sidewalk: Curb side : Cutout,Private,,12,6x6,37.76931504,-122.4315059
187474,DPW Maintained,Tristaniopsis laurina :: Swamp Myrtle,4399 Mission St,9,Sidewalk: Curb side : Cutout,Private,,5,Width 0ft,37.72815278,-122.431747
135590,DPW Maintained,Platanus x hispanica :: Sycamore: London Plane,150x Drumm St,2,Median : Yard,DPW,,8,Width 7ft,37.79493038,-122.39666
175507,DPW Maintained,Arbutus 'Marina' :: Hybrid Strawberry Tree,95 Gladstone Dr,3,Sidewalk: Property side : Yard,Private,6/16/21 0:00,3,Width 3ft,37.72939087,-122.4210958
13795,DPW Maintained,Platanus x hispanica :: Sycamore: London Plane,929 Market St,4,Sidewalk: Curb side : Cutout,DPW,9/12/93 0:00,30,3X3,37.78339759,-122.4085601
30362,DPW Maintained,Pittosporum undulatum :: Victorian Box,606 Arkansas St,1,Sidewalk: Curb side : Cutout,Private,3/2/56 0:00,11,,37.75852471,-122.3981897
134345,DPW Maintained,Platanus x hispanica :: Sycamore: London Plane,1028 Market St,4,Sidewalk: Curb side : Cutout,Private,,13,Width 4ft,37.7817173,-122.4110952
198154,DPW Maintained,Tristaniopsis laurina :: Swamp Myrtle,2 Zoe St,6,Sidewalk: Curb side : Cutout,Private,,5,Width 2ft,37.7801782,-122.3964804
25779,DPW Maintained,Arbutus 'Marina' :: Hybrid Strawberry Tree,1711 Geneva Ave,1,Sidewalk: Curb side : Cutout,DPW,4/18/97 0:00,18,2X3,37.7111607,-122.426399
23622,DPW Maintained,Platanus x hispanica :: Sycamore: London Plane,101X Vicente St,2,Sidewalk: Curb side : Cutout,DPW,,16,3X3,37.73976858,-122.4672855
225034,DPW Maintained,Ficus microcarpa nitida 'Green Gem' :: Indian Laurel Fig Tree 'Green Gem',4403 18th St,1,Sidewalk: Curb side : Cutout,Private,,15,Width 3ft,37.76052423,-122.438405
16389,DPW Maintained,Ficus microcarpa nitida 'Green Gem' :: Indian Laurel Fig Tree 'Green Gem',238 Myrtle St,1,Sidewalk: Curb side : Cutout,Private,,6,3X3,37.7851454,-122.4221053
10545,DPW Maintained,Lophostemon confertus :: Brisbane Box,165 Harbor Rd,2,Sidewalk: Curb side : Cutout,DPW,2/12/92 0:00,12,3X4,37.732451,-122.3785079
51059,DPW Maintained,Magnolia grandiflora :: Southern Magnolia,1751 Newcomb Ave,1,Sidewalk: Curb side : Cutout,Private,7/9/04 0:00,6,,37.73679169,-122.3926933
45648,DPW Maintained,Prunus cerasifera :: Cherry Plum,161 Naples St,1,Sidewalk: Curb side : Cutout,Private,10/27/05 0:00,3,,37.7261072,-122.4271553
135285,DPW Maintained,Platanus x hispanica :: Sycamore: London Plane,1000 The Embarcadero,3,Sidewalk: Curb side : Cutout,Private,,9,Width 4ft,37.80054971,-122.3990875
92462,DPW Maintained,Arbutus 'Marina' :: Hybrid Strawberry Tree,3445 Lawton St,4,Sidewalk: Curb side : Cutout,Private,7/30/09 0:00,2,3x3,37.75686541,-122.4999649
192961,DPW Maintained,Magnolia grandiflora :: Southern Magnolia,1 Missouri St,2,Sidewalk: Curb side : Cutout,Private,,7,Width 3ft,37.76609755,-122.3967785
23044,DPW Maintained,Metrosideros excelsa :: New Zealand Xmas Tree,1000 Valencia St,3,Sidewalk: Curb side : Cutout,DPW,2/1/95 0:00,18,3x3,37.75668817,-122.4212589
190357,DPW Maintained,Ficus microcarpa nitida 'Green Gem' :: Indian Laurel Fig Tree 'Green Gem',357 Bryant St,1,Sidewalk: Curb side : Cutout,Private,,20,Width 3ft,37.78313486,-122.3933905
135043,DPW Maintained,Platanus x hispanica :: Sycamore: London Plane,252 Broadway,3,Sidewalk: Curb side : Cutout,Private,,6,Width 4ft,37.79852701,-122.4020756
100530,DPW Maintained,Ficus microcarpa nitida 'Green Gem' :: Indian Laurel Fig Tree 'Green Gem',1434 Taylor St,1,Sidewalk: Curb side : Cutout,Private,,16,,37.79565809,-122.4131987
238725,DPW Maintained,Platanus x hispanica :: Sycamore: London Plane,150 Appleton Ave,1,Sidewalk: Curb side : Yard,Private,,6,Width 3ft,37.73801158,-122.4220442
117963,DPW Maintained,Arbutus 'Marina' :: Hybrid Strawberry Tree,4545 Anza St,11,Sidewalk: Curb side : Cutout,Private,,5,Width 3ft,37.77753646,-122.4965871
130899,DPW Maintained,Magnolia grandiflora :: Southern Magnolia,810 Mason St,5,Sidewalk: Curb side : Cutout,Private,,3,Width 3ft,37.79128057,-122.4106222
175497,DPW Maintained,Arbutus 'Marina' :: Hybrid Strawberry Tree,780 Woolsey St,17,Sidewalk: Curb side : Cutout,Private,,9,Width 3ft,37.72287811,-122.4118815
138948,DPW Maintained,Platanus x hispanica :: Sycamore: London Plane,738 HAYES ST,1,Sidewalk: Curb side : Cutout,Private,8/7/08 0:00,4,Width 0ft,37.7762322,-122.4286181
44181,DPW Maintained,Pittosporum undulatum :: Victorian Box,3731 Scott St,1,Sidewalk: Curb side : Cutout,Private,12/15/00 0:00,8,,37.80435416,-122.4421061
97063,DPW Maintained,Lophostemon confertus :: Brisbane Box,1599X Newcomb Ave,4,Sidewalk: Curb side : Cutout,SFUSD,,10,3x3,37.7351486,-122.3897551
224733,DPW Maintained,Ficus microcarpa nitida 'Green Gem' :: Indian Laurel Fig Tree 'Green Gem',3590 19th St,2,Sidewalk: Curb side : Cutout,Private,,18,Width 3ft,37.7600382,-122.42338
2566,DPW Maintained,Pittosporum undulatum :: Victorian Box,1600 Bush St,1,Sidewalk: Curb side : Cutout,DPW,,11,4X4,37.78832822,-122.423765
140873,DPW Maintained,Metrosideros excelsa :: New Zealand Xmas Tree,66 Wood St,4,Sidewalk: Curb side : Cutout,Private,,5,Width 0ft,37.78272848,-122.4491116
27059,DPW Maintained,Metrosideros excelsa :: New Zealand Xmas Tree,801 Silver Ave,1,Sidewalk: Curb side : Cutout,DPW,,12,4x15,37.72893955,-122.4174397
133578,DPW Maintained,Platanus x hispanica :: Sycamore: London Plane,250 Laurel St,6,Sidewalk: Curb side : Cutout,Private,,1,Width 3ft,37.78892983,-122.4504677
43773,DPW Maintained,Pittosporum undulatum :: Victorian Box,103 19th Ave,5,Sidewalk: Curb side : Cutout,Private,7/26/00 0:00,6,,37.78567623,-122.478781
102923,DPW Maintained,Pittosporum undulatum :: Victorian Box,1461 Pine St,1,Sidewalk: Curb side : Cutout,Private,3/12/13 0:00,1,3x3,37.78962626,-122.4198788
231293,DPW Maintained,Metrosideros excelsa :: New Zealand Xmas Tree,3820 25th St,3,Sidewalk: Curb side : Cutout,Private,,13,Width 2ft,37.75026409,-122.425502
130551,DPW Maintained,Magnolia grandiflora :: Southern Magnolia,3333 Jackson St,1,Sidewalk: Curb side : Cutout,Private,,14,Width 4ft,37.79046521,-122.4498548
127680,DPW Maintained,Ficus microcarpa nitida 'Green Gem' :: Indian Laurel Fig Tree 'Green Gem',623 Powell St,1,Sidewalk: Curb side : Cutout,Private,,17,Width 4ft,37.79040981,-122.4089116
44312,DPW Maintained,Prunus cerasifera :: Cherry Plum,2574 Broadway,1,Sidewalk: Curb side : Cutout,Private,3/2/01 0:00,5,,37.79379946,-122.4393364
103764,DPW Maintained,Prunus serrulata 'Kwanzan' :: Kwanzan Flowering Cherry,90X Frank Norris St,3,Sidewalk: Curb side : Cutout,DPW,11/1/09 0:00,3,3x3,37.78927035,-122.4195758
234060,DPW Maintained,Pittosporum undulatum :: Victorian Box,1400 Utah St,1,Sidewalk: Curb side : Cutout,Private,,14,Width 4ft,37.75162404,-122.4053058
190183,DPW Maintained,Ficus microcarpa nitida 'Green Gem' :: Indian Laurel Fig Tree 'Green Gem',20 Spear St,11,Sidewalk: Curb side : Cutout,Private,,7,Width 3ft,37.79323461,-122.3950955
235816,DPW Maintained,Prunus cerasifera :: Cherry Plum,54 Sycamore St,1,Sidewalk: Curb side : Cutout,Private,,5,Width 2ft,37.76267902,-122.4206246
213490,DPW Maintained,Prunus serrulata 'Kwanzan' :: Kwanzan Flowering Cherry,600 Miramar Ave,2,Sidewalk: Curb side : Cutout,Private,,4,Width 3ft,37.72772453,-122.4580501
95337,Permitted Site,Platanus x hispanica :: Sycamore: London Plane,855@Broadway Battery St,2,Sidewalk: Curb side : Cutout,Private,8/17/11 0:00,4,3x3,37.79909187,-122.4012351
105802,DPW Maintained,Pittosporum undulatum :: Victorian Box,2550 Fulton St,3,Sidewalk: Curb side : Cutout,Private,,20,6x9,37.77431738,-122.4592428
95966,DPW Maintained,Pittosporum undulatum :: Victorian Box,5500 Geary Blvd,1,Median :,DPW,3/12/11 0:00,2,,37.7805919,-122.4785275
229933,DPW Maintained,Magnolia grandiflora :: Southern Magnolia,651 29th St,3,Sidewalk: Curb side : Cutout,Private,,5,Width 2ft,37.74317641,-122.4343788
200897,DPW Maintained,Lophostemon confertus :: Brisbane Box,4251 03rd St,4,Sidewalk: Curb side : Cutout,Private,,5,Width 0ft,37.73902624,-122.3890718
9871,DPW Maintained,Ficus microcarpa nitida 'Green Gem' :: Indian Laurel Fig Tree 'Green Gem',1450X Gough St,4,Sidewalk: Curb side : Cutout,Private,,36,3X3,37.78688385,-122.4249126
76145,DPW Maintained,Lophostemon confertus :: Brisbane Box,2999X Polk St,3,Sidewalk: Curb side : Cutout,SFUSD,11/16/96 0:00,6,4x4,37.8033776,-122.4241268
106083,DPW Maintained,Platanus x hispanica :: Sycamore: London Plane,3444 Washington St,2,Sidewalk: Curb side : Cutout,Private,,21,,37.78966188,-122.4500681
48433,DPW Maintained,Ficus microcarpa nitida 'Green Gem' :: Indian Laurel Fig Tree 'Green Gem',1190 Sacramento St,2,Sidewalk: Curb side : Cutout,Private,7/26/02 0:00,10,,37.79262622,-122.4124182
127709,DPW Maintained,Ficus microcarpa nitida 'Green Gem' :: Indian Laurel Fig Tree 'Green Gem',1423 Taylor St,2,Sidewalk: Curb side : Cutout,Private,,7,Width 3ft,37.79543007,-122.4133114
172200,DPW Maintained,Lophostemon confertus :: Brisbane Box,399 Naples St,2,Sidewalk: Curb side : Cutout,Private,,0,Width 3ft,37.72253016,-122.4298478
130222,DPW Maintained,Lophostemon confertus :: Brisbane Box,1661 Jackson St,1,Sidewalk: Curb side : Cutout,Private,,4,Width 3ft,37.79391181,-122.4227343
238531,DPW Maintained,Prunus serrulata 'Kwanzan' :: Kwanzan Flowering Cherry,32 Gough St,1,Sidewalk: Curb side : Cutout,Private,,2,Width 3ft,37.77233688,-122.4209008
18719,DPW Maintained,Metrosideros excelsa :: New Zealand Xmas Tree,65X Roosevelt Way,7,Sidewalk: Curb side : Cutout,DPW,,12,3x3,37.76672106,-122.4372839
6085,Permitted Site,Pittosporum undulatum :: Victorian Box,1050X Broderick St,1,Sidewalk: Curb side : Cutout,Private,,6,4x4,37.77992553,-122.4404095
229042,DPW Maintained,Lophostemon confertus :: Brisbane Box,567 29th St,1,Sidewalk: Curb side : Cutout,Private,,15,Width 3ft,37.74327272,-122.4325953
86403,DPW Maintained,Tristaniopsis laurina :: Swamp Myrtle,1719 26th Ave,1,Sidewalk: Curb side : Cutout,DPW,12/19/06 0:00,3,3x3,37.75532907,-122.4841614
130683,DPW Maintained,Magnolia grandiflora :: Southern Magnolia,2327 Pacific Ave,1,Sidewalk: Curb side : Cutout,Private,,4,Width 3ft,37.79216153,-122.4430756
235285,DPW Maintained,Pittosporum undulatum :: Victorian Box,84 Seward St,2,Sidewalk: Property side : Yard,Private,,4,Width 3ft,37.75867831,-122.4404787
133310,DPW Maintained,Platanus x hispanica :: Sycamore: London Plane,2590 Green St,1,Sidewalk: Curb side : Cutout,Private,,8,Width 3ft,37.79542181,-122.4416082
200487,DPW Maintained,Lophostemon confertus :: Brisbane Box,2701 03rd St,5,Sidewalk: Curb side : Cutout,Private,,3,Width 3ft,37.75513733,-122.3878246
237634,DPW Maintained,Prunus cerasifera :: Cherry Plum,614 Noe St,2,Sidewalk: Curb side : Cutout,Private,,6,Width 3ft,37.75886302,-122.4326884
128089,DPW Maintained,Ficus microcarpa nitida 'Green Gem' :: Indian Laurel Fig Tree 'Green Gem',103 North Point St,6,Sidewalk: Curb side : Cutout,Private,,14,Width 3ft,37.80696394,-122.4099387
179016,DPW Maintained,Prunus serrulata 'Kwanzan' :: Kwanzan Flowering Cherry,70 Curtis St,1,Sidewalk: Curb side : Yard,Private,,2,Width 4ft,37.71368727,-122.4397842
229901,DPW Maintained,Magnolia grandiflora :: Southern Magnolia,1710 Diamond St,1,Sidewalk: Curb side : Yard,Private,,3,Width 4ft,37.74380593,-122.4356548
238351,DPW Maintained,Prunus serrulata 'Kwanzan' :: Kwanzan Flowering Cherry,737 Sanchez St,7,Sidewalk: Curb side : Yard,Private,,8,Width 3ft,37.75768146,-122.4302476
232598,DPW Maintained,Metrosideros excelsa :: New Zealand Xmas Tree,62 Worth St,3,Sidewalk: Curb side : Yard,Private,,7,Width 4ft,37.7543975,-122.4399468
229002,DPW Maintained,Lophostemon confertus :: Brisbane Box,3505 19th St,2,Sidewalk: Curb side : Cutout,Private,,1,Width 3ft,37.76002023,-122.421844
30985,DPW Maintained,Magnolia grandiflora :: Southern Magnolia,2021 Pacific Ave,1,Sidewalk: Curb side : Cutout,Private,7/7/09 0:00,4,3x3,37.7940157,-122.4289981
18512,DPW Maintained,Ficus microcarpa nitida 'Green Gem' :: Indian Laurel Fig Tree 'Green Gem',626 Powell St,2,Sidewalk: Curb side : Cutout,DPW,,12,4X4,37.79058106,-122.408804
244519,DPW Maintained,Pittosporum undulatum :: Victorian Box,547 Page St,1,Sidewalk: Curb side : Cutout,Private,,13,Width 0ft,37.77308716,-122.4297603
179998,DPW Maintained,Tristaniopsis laurina :: Swamp Myrtle,1261 Sunnydale Ave,1,Sidewalk: Curb side : Cutout,Private,,6,Width 2ft,37.71121815,-122.4138312
62400,DPW Maintained,Metrosideros excelsa :: New Zealand Xmas Tree,1080 Chestnut St,1,Sidewalk: Curb side : Cutout,Private,10/25/85 0:00,7,,37.80285682,-122.4208902
211747,DPW Maintained,Pittosporum undulatum :: Victorian Box,70 Forest Side Ave,1,Sidewalk: Curb side : Cutout,Private,3/6/17 0:00,3,Width 3ft,37.74210344,-122.4683732
202761,DPW Maintained,Lophostemon confertus :: Brisbane Box,89 Long Bridge St,8,Sidewalk: Curb side : Cutout,Private,,2,Width 5ft,37.77147152,-122.3938603
238697,DPW Maintained,Platanus x hispanica :: Sycamore: London Plane,189 Highland Ave,1,Sidewalk: Curb side : Cutout,Private,,12,Width 3ft,37.7373392,-122.4215722
25569,Permitted Site,Platanus x hispanica :: Sycamore: London Plane,50X Industrial St,14,Sidewalk: Curb side : Cutout,Private,,0,4X4,37.73993926,-122.4003467
42729,DPW Maintained,Pittosporum undulatum :: Victorian Box,1790 Yosemite Ave,4,Sidewalk: Curb side : Cutout,Private,6/26/00 0:00,9,,37.7287859,-122.3949019
133215,DPW Maintained,Pittosporum undulatum :: Victorian Box,601 Davis St,6,Sidewalk: Curb side : Cutout,Private,,5,Width 3ft,37.79744995,-122.3985135
193249,DPW Maintained,Magnolia grandiflora :: Southern Magnolia,88 04th St,3,Sidewalk: Curb side : Cutout,Private,,10,Width 3ft,37.78458869,-122.4045541
33778,Permitted Site,Magnolia grandiflora :: Southern Magnolia,77 Beale St,9,Sidewalk: Curb side : Cutout,Private,1/5/15 0:00,3,3x3,37.79150508,-122.396128
228613,DPW Maintained,Lophostemon confertus :: Brisbane Box,658 San Jose Ave,1,Sidewalk: Curb side : Cutout,Private,,23,Width 3ft,37.74493426,-122.4224628
9101,DPW Maintained,Metrosideros excelsa :: New Zealand Xmas Tree,5700 Geary Blvd,2,Sidewalk: Curb side : Cutout,Private,,12,3X3,37.7804141,-122.480714
138816,DPW Maintained,Platanus x hispanica :: Sycamore: London Plane,727 Grove St,1,Sidewalk: Curb side : Yard,Private,,20,Width 0ft,37.77707912,-122.4284862
230480,DPW Maintained,Magnolia grandiflora :: Southern Magnolia,1180 Florida St,1,Sidewalk: Curb side : Cutout,Private,,10,Width 3ft,37.75308806,-122.4101767
135145,DPW Maintained,Platanus x hispanica :: Sycamore: London Plane,1411 The Embarcadero,2,Sidewalk: Property side : Yard,Private,,10,,37.80851321,-122.411139
116178,DPW Maintained,Pittosporum undulatum :: Victorian Box,94X Natoma St,2,Sidewalk: Curb side : Cutout,Private,,8,2x2,37.78739461,-122.3986281
226509,DPW Maintained,Ficus microcarpa nitida 'Green Gem' :: Indian Laurel Fig Tree 'Green Gem',855 Treat Ave,1,Sidewalk: Curb side : Cutout,Private,,12,Width 3ft,37.75652431,-122.4133046
133393,DPW Maintained,Platanus x hispanica :: Sycamore: London Plane,3742 Washington St,4,Sidewalk: Curb side : Yard,Private,,11,Width 2ft,37.78905835,-122.454828
213143,DPW Maintained,Metrosideros excelsa :: New Zealand Xmas Tree,233 Granada Ave,1,Sidewalk: Curb side : Cutout,Private,,9,Width 4ft,37.72264483,-122.457244
139311,DPW Maintained,Platanus x hispanica :: Sycamore: London Plane,1333 GOUGH ST,4,Sidewalk: Curb side : Cutout,Private,,14,Width 0ft,37.78585111,-122.4248745
121650,Undocumented,Arbutus 'Marina' :: Hybrid Strawberry Tree,90 Fernwood Dr,5,Sidewalk: Curb side : Cutout,Private,1/3/17 0:00,3,2x2,37.73291821,-122.460606
13418,DPW Maintained,Platanus x hispanica :: Sycamore: London Plane,1 Market St,2,Sidewalk: Curb side : Cutout,DPW,,40,4x4,37.7939088,-122.3953659
236163,DPW Maintained,Pittosporum undulatum :: Victorian Box,136 Whitney St,1,Sidewalk: Curb side : Cutout,Private,,8,Width 3ft,37.73911068,-122.4276084
134817,DPW Maintained,Platanus x hispanica :: Sycamore: London Plane,995 Chestnut St,2,Sidewalk: Curb side : Cutout,Private,,10,Width 3ft,37.80288284,-122.4195871
234810,DPW Maintained,Platanus x hispanica :: Sycamore: London Plane,1613 Market St,1,Sidewalk: Curb side : Cutout,Private,,18,Width 4ft,37.77409175,-122.420347
5379,DPW Maintained,Magnolia grandiflora :: Southern Magnolia,299 Dolores St,2,Sidewalk: Curb side : Cutout,DPW,,60,4X4,37.76491628,-122.4262601
6084,DPW Maintained,Pittosporum undulatum :: Victorian Box,1989 Eddy St,1,Sidewalk: Curb side : Cutout,DPW,,12,4X4,37.78033346,-122.440353
141621,DPW Maintained,Magnolia grandiflora :: Southern Magnolia,1801 GROVE ST,3,Sidewalk: Curb side : Cutout,Private,,5,Width 0ft,37.77466979,-122.4473934
132897,DPW Maintained,Pittosporum undulatum :: Victorian Box,2527 Scott St,3,Sidewalk: Curb side : Yard,Private,,5,Width 4ft,37.79343676,-122.439897
235766,DPW Maintained,Prunus cerasifera :: Cherry Plum,1300 San Bruno Ave,2,Sidewalk: Curb side : Cutout,Private,,8,Width 5ft,37.75294675,-122.4044447
182235,DPW Maintained,Prunus cerasifera :: Cherry Plum,1431 28th Ave,2,Sidewalk: Curb side : Cutout,Private,,4,Width 0ft,37.76062623,-122.4866668
230109,DPW Maintained,Magnolia grandiflora :: Southern Magnolia,60 Manchester St,1,Sidewalk: Curb side : Cutout,Private,,2,Width 4ft,37.74619666,-122.4143592
237149,DPW Maintained,Prunus serrulata 'Kwanzan' :: Kwanzan Flowering Cherry,601 Hampshire St,2,Sidewalk: Curb side : Cutout,Private,,1,Width 5ft,37.76159701,-122.4080679
189765,DPW Maintained,Ficus microcarpa nitida 'Green Gem' :: Indian Laurel Fig Tree 'Green Gem',2200 26th St,5,Sidewalk: Curb side : Yard,Private,,18,,37.75066047,-122.4016116
195119,DPW Maintained,Platanus x hispanica :: Sycamore: London Plane,700 Minnesota St,12,Sidewalk: Curb side : Cutout,Private,,9,Width 3ft,37.76087654,-122.3906053
92336,DPW Maintained,Tristaniopsis laurina :: Swamp Myrtle,2570 32nd Ave,1,Sidewalk: Curb side : Cutout,Private,7/28/09 0:00,1,3x3,37.73928609,-122.4893228
213176,DPW Maintained,Metrosideros excelsa :: New Zealand Xmas Tree,75 Jules Ave,1,Sidewalk: Curb side : Cutout,Private,,8,Width 2ft,37.7195783,-122.4613183
185384,DPW Maintained,Metrosideros excelsa :: New Zealand Xmas Tree,2300 Sunset Blvd,1,Sidewalk: Curb side : Yard,Private,,8,Width 0ft,37.74265566,-122.494309
130447,DPW Maintained,Magnolia grandiflora :: Southern Magnolia,2701 Broderick St,1,Sidewalk: Curb side : Cutout,Private,,14,Width 3ft,37.79535393,-122.4437077
13438,DPW Maintained,Platanus x hispanica :: Sycamore: London Plane,2X Market St,6,Sidewalk: Curb side : Cutout,DPW,12/12/02 0:00,6,4x4,37.79432565,-122.3952546
214687,DPW Maintained,Prunus serrulata 'Kwanzan' :: Kwanzan Flowering Cherry,2624 14th Ave,2,Sidewalk: Curb side : Cutout,Private,,4,Width 3ft,37.73870492,-122.4697807
23045,DPW Maintained,Ficus microcarpa nitida 'Green Gem' :: Indian Laurel Fig Tree 'Green Gem',1009 Valencia St,1,Sidewalk: Curb side : Cutout,Private,7/19/94 0:00,20,3X3,37.75664963,-122.4209814
236045,DPW Maintained,Pittosporum undulatum :: Victorian Box,87 Sharon St,1,Sidewalk: Curb side : Cutout,Private,,13,Width 4ft,37.76458824,-122.4297358
130659,DPW Maintained,Magnolia grandiflora :: Southern Magnolia,2041 Broderick St,1,Sidewalk: Curb side : Cutout,Private,,5,Width 3ft,37.78946753,-122.4425316
84397,DPW Maintained,Tristaniopsis laurina :: Swamp Myrtle,2101 Jerrold Ave,1,Sidewalk: Curb side : Cutout,Private,,4,,37.74449257,-122.3996366
195337,DPW Maintained,Platanus x hispanica :: Sycamore: London Plane,55 Steuart St,2,Sidewalk: Curb side : Cutout,Private,,7,Width 4ft,37.7940156,-122.3940271
5020,DPW Maintained,Metrosideros excelsa :: New Zealand Xmas Tree,5320 Diamond Heights Blvd,4,Sidewalk: Curb side : Cutout,Private,1/6/92 0:00,3,2X2,37.74301859,-122.4370193
82793,DPW Maintained,Arbutus 'Marina' :: Hybrid Strawberry Tree,1650 Moraga St,1,Sidewalk: Curb side : Cutout,Private,10/30/07 0:00,5,3x3,37.75601024,-122.4805368
235021,DPW Maintained,Pittosporum undulatum :: Victorian Box,575 Douglass St,2,Sidewalk: Curb side : Cutout,Private,,16,Width 3ft,37.7543927,-122.4387246
234944,DPW Maintained,Pittosporum undulatum :: Victorian Box,520 Clipper St,1,Sidewalk: Curb side : Cutout,Private,,6,Width 5ft,37.74878491,-122.4366364
5306,DPW Maintained,Metrosideros excelsa :: New Zealand Xmas Tree,1635 Divisadero St,8,Sidewalk: Curb side : Cutout,Private,,10,3X3,37.7844831,-122.4398411
75940,DPW Maintained,Lophostemon confertus :: Brisbane Box,539 Bryant St,3,Sidewalk: Curb side : Cutout,Private,,6,,37.78029276,-122.3969876
133296,DPW Maintained,Platanus x hispanica :: Sycamore: London Plane,2500 Green St,2,Sidewalk: Curb side : Cutout,Private,,10,Width 3ft,37.79556754,-122.4404336
133387,DPW Maintained,Platanus x hispanica :: Sycamore: London Plane,3730 Washington St,1,Sidewalk: Curb side : Cutout,Private,,10,Width 4ft,37.78909477,-122.4544923
43519,DPW Maintained,Prunus cerasifera :: Cherry Plum,534 Broderick St,1,Sidewalk: Curb side : Cutout,Private,7/19/00 0:00,5,,37.77529897,-122.4395004
51292,DPW Maintained,Tristaniopsis laurina :: Swamp Myrtle,178 Delta St,1,Sidewalk: Curb side : Cutout,Private,8/26/04 0:00,4,,37.71616097,-122.4082335
63559,DPW Maintained,Metrosideros excelsa :: New Zealand Xmas Tree,3655 Lawton St,1,Sidewalk: Curb side : Cutout,Private,4/27/87 0:00,7,,37.75676603,-122.5022953
97763,DPW Maintained,Prunus cerasifera :: Cherry Plum,115 Commonwealth Ave,1,Sidewalk: Curb side : Cutout,Private,11/8/11 0:00,1,,37.78356468,-122.4557769
20175,DPW Maintained,Pittosporum undulatum :: Victorian Box,1200X Steiner St,4,Sidewalk: Curb side : Cutout,DPW,1/2/91 0:00,6,3X3,37.7807144,-122.4337918
212712,DPW Maintained,Prunus cerasifera :: Cherry Plum,1453 06th Ave,1,Sidewalk: Curb side : Cutout,Private,,7,Width 4ft,37.76131762,-122.4629908
218415,DPW Maintained,Prunus cerasifera :: Cherry Plum,200 Castenada Ave,2,Sidewalk: Curb side : Yard,Private,,3,Width 0ft,37.74768384,-122.4625323
60371,DPW Maintained,Metrosideros excelsa :: New Zealand Xmas Tree,1443 Palou Ave,1,Sidewalk: Curb side : Cutout,Private,10/26/82 0:00,9,3x3,37.73225439,-122.3880436
128770,DPW Maintained,Ficus microcarpa nitida 'Green Gem' :: Indian Laurel Fig Tree 'Green Gem',63 Maiden Ln,1,Sidewalk: Curb side : Cutout,Private,,6,Width 1ft,37.78829598,-122.4043735
200788,DPW Maintained,Metrosideros excelsa :: New Zealand Xmas Tree,1600 McKinnon Ave,2,Sidewalk: Curb side : Cutout,Private,,17,Width 0ft,37.73603211,-122.3892175
127598,DPW Maintained,Ficus microcarpa nitida 'Green Gem' :: Indian Laurel Fig Tree 'Green Gem',7 Ada Ct,5,Sidewalk: Curb side : Cutout,Private,,14,Width 3ft,37.78569139,-122.4157502
13521,DPW Maintained,Platanus x hispanica :: Sycamore: London Plane,388 Market St,4,Sidewalk: Curb side : Cutout,DPW,,20,4x4,37.79187674,-122.398261
84389,DPW Maintained,Tristaniopsis laurina :: Swamp Myrtle,2101 Jerrold Ave,9,Sidewalk: Curb side : Cutout,Private,,4,,37.74426564,-122.3992313
122798,DPW Maintained,Ficus microcarpa nitida 'Green Gem' :: Indian Laurel Fig Tree 'Green Gem',1458 Kansas St,2,Sidewalk: Curb side : Cutout,Private,,16,4x4,37.7511212,-122.4023383
130542,DPW Maintained,Magnolia grandiflora :: Southern Magnolia,150 Spruce St,1,Sidewalk: Curb side : Yard,Private,,7,Width 4ft,37.78959018,-122.4539735
6219,DPW Maintained,Platanus x hispanica :: Sycamore: London Plane,1215 Ellis St,2,Sidewalk: Curb side : Cutout,DPW,,15,3X3,37.78279323,-122.4266965
81216,DPW Maintained,Magnolia grandiflora :: Southern Magnolia,1490 20th Ave,1,Sidewalk: Curb side : Cutout,Private,,12,,37.7599769,-122.4778682
31387,DPW Maintained,Tristaniopsis laurina :: Swamp Myrtle,1314 Ulloa St,1,Sidewalk: Curb side : Cutout,Private,4/21/95 0:00,12,3x3,37.74147654,-122.4705383
193931,DPW Maintained,Metrosideros excelsa :: New Zealand Xmas Tree,102 Whitney Young Cir,8,Sidewalk: Curb side : Cutout,Private,,21,Width 3ft,37.73451735,-122.3847684
178446,DPW Maintained,Pittosporum undulatum :: Victorian Box,300x Mansell St,8,Median : Cutout,DPW,,7,Width 0ft,37.72067242,-122.4044456
190212,DPW Maintained,Ficus microcarpa nitida 'Green Gem' :: Indian Laurel Fig Tree 'Green Gem',55 Main St,9,Sidewalk: Curb side : Cutout,Private,,9,Width 3ft,37.79266809,-122.395822
126797,DPW Maintained,Ficus microcarpa nitida 'Green Gem' :: Indian Laurel Fig Tree 'Green Gem',3898 Divisadero St,1,Sidewalk: Curb side : Cutout,Private,,6,Width 3ft,37.80525905,-122.4438293
118076,DPW Maintained,Tristaniopsis laurina :: Swamp Myrtle,6950 Geary Blvd,2,Sidewalk: Curb side : Cutout,Private,,4,Width 3ft,37.77978442,-122.4941907
21914,DPW Maintained,Lophostemon confertus :: Brisbane Box,2190 03rd St,4,Sidewalk: Curb side : Cutout,DPW,10/10/17 12:13,3,3X3,37.76215959,-122.3888532
235105,DPW Maintained,Pittosporum undulatum :: Victorian Box,15 Powers Ave,1,Sidewalk: Curb side : Cutout,Private,,14,Width 3ft,37.74602846,-122.4190307
133162,DPW Maintained,Pittosporum undulatum :: Victorian Box,2200 Grant Ave,6,Sidewalk: Curb side : Cutout,Private,,14,Width 4ft,37.80767295,-122.4089567
134077,DPW Maintained,Platanus x hispanica :: Sycamore: London Plane,2501 Vallejo St,3,Sidewalk: Curb side : Cutout,Private,,15,Width 4ft,37.79471418,-122.4385448
106086,DPW Maintained,Ficus microcarpa nitida 'Green Gem' :: Indian Laurel Fig Tree 'Green Gem',2712 Webster St,2,Sidewalk: Curb side : Cutout,Private,,17,,37.79603505,-122.4335053
29321,DPW Maintained,Lophostemon confertus :: Brisbane Box,1250X Portola Dr,10,Median : Cutout,DPW,10/14/05 0:00,3,3X3,37.74005199,-122.4632537
11222,DPW Maintained,Arbutus 'Marina' :: Hybrid Strawberry Tree,1050X Ingalls St,8,Sidewalk: Curb side : Cutout,Private,12/22/15 0:00,3,3X4,37.73286112,-122.3796919
212791,DPW Maintained,Platanus x hispanica :: Sycamore: London Plane,550 Congo St,1,Sidewalk: Curb side : Cutout,Private,,11,Width 2ft,37.73382221,-122.441955
241783,DPW Maintained,Tristaniopsis laurina :: Swamp Myrtle,209 Day St,8,Sidewalk: Curb side : Cutout,Private,,12,Width 5ft,37.74277309,-122.4276586
131636,DPW Maintained,Metrosideros excelsa :: New Zealand Xmas Tree,1 John Maher St,7,Sidewalk: Curb side : Cutout,Private,,9,Width 2ft,37.80099373,-122.4009247
7977,DPW Maintained,Pittosporum undulatum :: Victorian Box,2007 Franklin St,2,Sidewalk: Curb side : Cutout,Private,,15,3X3,37.79320611,-122.4246733
133662,DPW Maintained,Platanus x hispanica :: Sycamore: London Plane,3301 Van Ness Ave,16,Sidewalk: Curb side : Cutout,Private,,12,Width 3ft,37.80621167,-122.4256985
130514,DPW Maintained,Magnolia grandiflora :: Southern Magnolia,3511 Clay St,2,Sidewalk: Curb side : Cutout,Private,,9,Width 2ft,37.78855111,-122.4507397
187310,DPW Maintained,Metrosideros excelsa :: New Zealand Xmas Tree,2200 Sunset Blvd,3,Sidewalk: Curb side : Yard,Private,,24,Width 0ft,37.74464844,-122.4944676
178973,DPW Maintained,Prunus serrulata 'Kwanzan' :: Kwanzan Flowering Cherry,1501 San Jose Ave,1,Sidewalk: Curb side : Cutout,Private,,4,Width 3ft,37.73052706,-122.4359038
50236,DPW Maintained,Tristaniopsis laurina :: Swamp Myrtle,1450 32nd Ave,1,Sidewalk: Curb side : Cutout,Private,8/27/03 0:00,5,,37.76012011,-122.4907854
124670,DPW Maintained,Pittosporum undulatum :: Victorian Box,362 Arguello Blvd,1,Sidewalk: Curb side : Cutout,Private,,8,Width 3ft,37.78452751,-122.4590107
93481,DPW Maintained,Magnolia grandiflora :: Southern Magnolia,1514 Jerrold Ave,1,Sidewalk: Curb side : Cutout,Private,8/11/10 0:00,1,3x3,37.73805455,-122.3879314
51921,DPW Maintained,Ficus microcarpa nitida 'Green Gem' :: Indian Laurel Fig Tree 'Green Gem',101 Walnut St,1,Sidewalk: Curb side : Cutout,Private,7/20/05 0:00,8,,37.79047913,-122.4492422
178453,DPW Maintained,Pittosporum undulatum :: Victorian Box,500x Mansell St,13,Median : Cutout,DPW,,11,Width 0ft,37.72036784,-122.4056546
214577,DPW Maintained,Prunus serrulata 'Kwanzan' :: Kwanzan Flowering Cherry,1427 Irving St,1,Sidewalk: Curb side : Cutout,Private,,4,Width 3ft,37.7636368,-122.4733357
29273,DPW Maintained,Lophostemon confertus :: Brisbane Box,300X Portola Dr,17,Median : Cutout,DPW,10/14/05 0:00,3,3X3,37.74666796,-122.4469037
131332,DPW Maintained,Metrosideros excelsa :: New Zealand Xmas Tree,1308 Francisco St,2,Sidewalk: Curb side : Cutout,Private,,7,Width 3ft,37.80301179,-122.4270228
38849,DPW Maintained,Pittosporum undulatum :: Victorian Box,1567 20th Ave,2,Sidewalk: Curb side : Cutout,Private,11/2/98 0:00,7,,37.75852933,-122.4779354
232612,DPW Maintained,Metrosideros excelsa :: New Zealand Xmas Tree,25 Wilder St,2,Sidewalk: Curb side : Cutout,Private,,8,Width 2ft,37.73394731,-122.4327086
200423,DPW Maintained,Lophostemon confertus :: Brisbane Box,2955 03rd St,10,Sidewalk: Curb side : Cutout,Private,,7,Width 3ft,37.75239775,-122.3875551
183683,DPW Maintained,Magnolia grandiflora :: Southern Magnolia,4109 Irving St,1,Sidewalk: Curb side : Cutout,Private,,1,Width 0ft,37.76238886,-122.5020072
132500,DPW Maintained,Pittosporum undulatum :: Victorian Box,2512 Union St,2,Sidewalk: Curb side : Cutout,Private,,18,Width 3ft,37.79647697,-122.4408546
212764,DPW Maintained,Platanus x hispanica :: Sycamore: London Plane,450 Vicente St,1,Sidewalk: Curb side : Cutout,Private,,13,Width 3ft,37.73955924,-122.4719839
2120,DPW Maintained,Arbutus 'Marina' :: Hybrid Strawberry Tree,1100X Bosworth St,9,Sidewalk: Curb side : Cutout,DPW,7/6/05 0:00,3,3X3,37.73462174,-122.4388132
138964,DPW Maintained,Platanus x hispanica :: Sycamore: London Plane,686 HAYES ST,1,Sidewalk: Curb side : Cutout,Private,,12,Width 0ft,37.77636983,-122.427687
132934,DPW Maintained,Pittosporum undulatum :: Victorian Box,2266 Jackson St,3,Sidewalk: Curb side : Cutout,Private,,29,Width 4ft,37.79281795,-122.43238
201219,DPW Maintained,Magnolia grandiflora :: Southern Magnolia,685 Folsom St,1,Sidewalk: Curb side : Cutout,Private,,4,Width 0ft,37.78412593,-122.3983471
196118,DPW Maintained,Prunus cerasifera :: Cherry Plum,860 De Haro St,1,Sidewalk: Curb side : Cutout,Private,,5,Width 3ft,37.75884855,-122.4011392
218622,DPW Maintained,Tristaniopsis laurina :: Swamp Myrtle,734 Quintara St,1,Sidewalk: Curb side : Cutout,Private,,4,Width 2ft,37.74883301,-122.4735624
124223,DPW Maintained,Prunus cerasifera :: Cherry Plum,165 Stanyan Blvd,1,Sidewalk: Curb side : Cutout,Private,,8,Width 2ft,37.77847439,-122.4554862
137534,DPW Maintained,Platanus x hispanica :: Sycamore: London Plane,1571 Steiner St,2,Sidewalk: Curb side : Cutout,Private,,4,Width 0ft,37.78372977,-122.4345623
17750,DPW Maintained,Lophostemon confertus :: Brisbane Box,1661 Pine St,2,Sidewalk: Curb side : Cutout,Private,1/20/00 0:00,4,3X3,37.7891686,-122.4234991
42734,DPW Maintained,Magnolia grandiflora :: Southern Magnolia,2155 Bay Shore Blvd,6,Sidewalk: Curb side : Cutout,Private,6/26/00 0:00,24,,37.71273501,-122.4007401
264722,DPW Maintained,Arbutus 'Marina' :: Hybrid Strawberry Tree,1301 16th St,9,Sidewalk: Curb side : Cutout,Private,9/17/20 0:00,3,,37.7658429,-122.4002422
250608,DPW Maintained,Lophostemon confertus :: Brisbane Box,2201 Golden Gate Ave,33,Sidewalk: Property side : Yard,Private,,5,,37.77746317,-122.4477408
212314,DPW Maintained,Prunus cerasifera :: Cherry Plum,201 Edgewood Ave,2,Sidewalk: Curb side : Cutout,Private,,4,Width 3ft,37.76205536,-122.4550384
139575,DPW Maintained,Pittosporum undulatum :: Victorian Box,1203 SCOTT ST,1,Sidewalk: Curb side : Cutout,Private,,8,Width 0ft,37.7810695,-122.4373846
213639,DPW Maintained,Prunus serrulata 'Kwanzan' :: Kwanzan Flowering Cherry,32 Malta Dr,21,Sidewalk: Curb side : Yard,Private,,6,Width 3ft,37.7353316,-122.4439587
234259,DPW Maintained,Pittosporum undulatum :: Victorian Box,207 Prospect Ave,1,Sidewalk: Curb side : Cutout,Private,,13,Width 3ft,37.74200111,-122.419626
97726,DPW Maintained,Lophostemon confertus :: Brisbane Box,2999X Polk St,9,Sidewalk: Curb side : Cutout,SFUSD,,6,4x4,37.80379024,-122.4241452
37548,DPW Maintained,Ficus microcarpa nitida 'Green Gem' :: Indian Laurel Fig Tree 'Green Gem',952 Sutter St,1,Sidewalk: Curb side : Cutout,Private,6/22/98 0:00,13,,37.78834369,-122.4160206
95931,DPW Maintained,Prunus serrulata 'Kwanzan' :: Kwanzan Flowering Cherry,691 27th Ave,1,Sidewalk: Curb side : Cutout,Private,7/29/11 0:00,2,3x3,37.77638849,-122.4866995
237384,DPW Maintained,Prunus serrulata 'Kwanzan' :: Kwanzan Flowering Cherry,145 Bartlett St,1,Sidewalk: Curb side : Cutout,Private,,5,Width 3ft,37.75460896,-122.4197246
131399,DPW Maintained,Metrosideros excelsa :: New Zealand Xmas Tree,2331 Vallejo St,2,Sidewalk: Curb side : Cutout,Private,,11,Width 4ft,37.7951195,-122.4354341
213128,DPW Maintained,Metrosideros excelsa :: New Zealand Xmas Tree,126 Hearst Ave,1,Sidewalk: Curb side : Cutout,Private,,5,Width 2ft,37.73077529,-122.4403831
235351,DPW Maintained,Platanus x hispanica :: Sycamore: London Plane,1661 15th St,2,Sidewalk: Curb side : Cutout,Private,,15,Width 5ft,37.7665193,-122.42131
228066,DPW Maintained,Lophostemon confertus :: Brisbane Box,15 Elk St,1,Sidewalk: Curb side : Cutout,Private,,4,Width 3ft,37.7370847,-122.4397518
28341,DPW Maintained,Platanus x hispanica :: Sycamore: London Plane,3119 Mission St,3,Sidewalk: Curb side : Cutout,DPW,1/12/04 0:00,6,3X3,37.74755461,-122.4184944
178605,DPW Maintained,Platanus x hispanica :: Sycamore: London Plane,0 Gonzalez Dr,6,Sidewalk: Curb side : Yard,Private,,2,,37.71747795,-122.4817117
66091,DPW Maintained,Ficus microcarpa nitida 'Green Gem' :: Indian Laurel Fig Tree 'Green Gem',1034 Filbert St,1,Sidewalk: Curb side : Cutout,Private,8/8/90 0:00,14,,37.8005368,-122.4165516
19493,DPW Maintained,Tristaniopsis laurina :: Swamp Myrtle,20X Saint Joseph's Ave,1,Sidewalk: Curb side : Cutout,DPW,,12,4X4,37.77977346,-122.4406517
181717,DPW Maintained,Arbutus 'Marina' :: Hybrid Strawberry Tree,1213 27th Ave,3,Sidewalk: Curb side : Cutout,Private,,5,Width 0ft,37.76473788,-122.4858799
224403,DPW Maintained,Ficus microcarpa nitida 'Green Gem' :: Indian Laurel Fig Tree 'Green Gem',298 Clinton Park,5,Sidewalk: Curb side : Cutout,Private,,15,Width 4ft,37.76903774,-122.426357
219666,DPW Maintained,Arbutus 'Marina' :: Hybrid Strawberry Tree,4924 17th St,2,Sidewalk: Curb side : Cutout,Private,,13,Width 3ft,37.76157899,-122.4511199
180134,DPW Maintained,Tristaniopsis laurina :: Swamp Myrtle,855 Naples St,8,Sidewalk: Curb side : Cutout,Private,,10,Width 2ft,37.71586903,-122.43488
212474,DPW Maintained,Prunus cerasifera :: Cherry Plum,2634 17th Ave,1,Sidewalk: Curb side : Cutout,Private,,4,Width 3ft,37.73875567,-122.4731672
1748,DPW Maintained,Platanus x hispanica :: Sycamore: London Plane,111 Bay St,12,Sidewalk: Curb side : Cutout,PUC,,18,5,37.80627197,-122.4077539
131435,DPW Maintained,Metrosideros excelsa :: New Zealand Xmas Tree,333 O'Farrell St,1,Sidewalk: Curb side : Cutout,Private,,7,Width 3ft,37.78595976,-122.4110937
27836,Permitted Site,Platanus x hispanica :: Sycamore: London Plane,900X The Embarcadero,9,Sidewalk: Curb side : Cutout,Port,12/20/00 0:00,24,,37.80288457,-122.4006465
141721,DPW Maintained,Platanus x hispanica :: Sycamore: London Plane,1575 GEARY BLVD,5,Sidewalk: Curb side : Cutout,Private,,14,Width 0ft,37.78463539,-122.4291126
7715,DPW Maintained,Lophostemon confertus :: Brisbane Box,101X Franklin St,3,Sidewalk: Curb side : Cutout,DPW,2/15/05 0:00,7,3X3,37.77523536,-122.4210481
177172,DPW Maintained,Lophostemon confertus :: Brisbane Box,18 Hester Ave,1,Sidewalk: Curb side : Cutout,Private,,5,Width 2ft,37.71418628,-122.3981911
2883,DPW Maintained,Platanus x hispanica :: Sycamore: London Plane,1500X California St,1,Sidewalk: Curb side : Cutout,DPW,,75,3X3,37.79085004,-122.4192691
124375,DPW Maintained,Prunus cerasifera :: Cherry Plum,47 Jordan Ave,1,Sidewalk: Curb side : Yard,Private,,13,Width 4ft,37.78502238,-122.456983
46092,DPW Maintained,Magnolia grandiflora :: Southern Magnolia,100 19th Ave,2,Sidewalk: Curb side : Cutout,Private,12/10/01 0:00,2,,37.78579691,-122.478625
183645,DPW Maintained,Metrosideros excelsa :: New Zealand Xmas Tree,1488 La Playa,1,Sidewalk: Curb side : Cutout,Private,,3,Width 0ft,37.75876929,-122.5089597
127319,DPW Maintained,Ficus microcarpa nitida 'Green Gem' :: Indian Laurel Fig Tree 'Green Gem',2792 Fillmore St,4,Sidewalk: Curb side : Cutout,Private,,14,Width 4ft,37.79506831,-122.4350032
97146,Undocumented,Lophostemon confertus :: Brisbane Box,2001X Harrison St,2,Sidewalk: Curb side : Cutout,Private,,5,3x3,37.76540357,-122.4131712
127075,DPW Maintained,Ficus microcarpa nitida 'Green Gem' :: Indian Laurel Fig Tree 'Green Gem',2065 Chestnut St,1,Sidewalk: Curb side : Cutout,Private,,10,Width 3ft,37.8006179,-122.4373144
2724,Permitted Site,Pittosporum undulatum :: Victorian Box,2205X Bush St,3,Sidewalk: Curb side : Cutout,Private,5/12/92 0:00,12,3x3,37.78693847,-122.433559
177595,DPW Maintained,Metrosideros excelsa :: New Zealand Xmas Tree,2973 Alemany Blvd,2,Sidewalk: Curb side : Cutout,Private,,23,Width 4ft,37.71126488,-122.452827
13510,DPW Maintained,Platanus x hispanica :: Sycamore: London Plane,333 Market St,4,Sidewalk: Curb side : Cutout,DPW,,50,4X4,37.79187783,-122.3978554
235946,DPW Maintained,Prunus cerasifera :: Cherry Plum,86 Mullen Ave,1,Sidewalk: Curb side : Cutout,Private,,6,Width 3ft,37.74635394,-122.4092013
230561,DPW Maintained,Magnolia grandiflora :: Southern Magnolia,26 Saint Marys Ave,1,Sidewalk: Curb side : Cutout,Private,,6,Width 3ft,37.73422714,-122.4265879
219689,DPW Maintained,Arbutus 'Marina' :: Hybrid Strawberry Tree,291 Putnam St,2,Sidewalk: Curb side : Cutout,Private,,4,Width 2ft,37.73572493,-122.4110611
247469,DPW Maintained,Pittosporum undulatum :: Victorian Box,700 Page St,1,Sidewalk: Curb side : Cutout,Private,,10,Width 0ft,37.77286376,-122.432477
15011,DPW Maintained,Metrosideros excelsa :: New Zealand Xmas Tree,637 Mendell St,1,Sidewalk: Curb side : Cutout,DPW,,4,0,37.73909522,-122.3861826
101105,DPW Maintained,Metrosideros excelsa :: New Zealand Xmas Tree,1642 Noriega St,1,Sidewalk: Curb side : Cutout,Private,,12,3x3,37.75413522,-122.4815289
201872,DPW Maintained,Tristaniopsis laurina :: Swamp Myrtle,855 Folsom St,7,Sidewalk: Curb side : Cutout,Private,,2,Width 0ft,37.78086786,-122.402468
15088,Permitted Site,Platanus x hispanica :: Sycamore: London Plane,30 Mission St,3,Sidewalk: Curb side : Cutout,Port,,6,4X4,37.79335856,-122.3931418
228768,DPW Maintained,Lophostemon confertus :: Brisbane Box,1 Franklin St,2,Sidewalk: Curb side : Cutout,Private,,2,Width 4ft,37.7744263,-122.4208886
27922,Permitted Site,Platanus x hispanica :: Sycamore: London Plane,100 The Embarcadero,16,Sidewalk: Curb side : Cutout,Port,2/1/01 0:00,12,3X3,37.78063781,-122.3889473
234252,DPW Maintained,Pittosporum undulatum :: Victorian Box,104 Banks St,1,Sidewalk: Curb side : Cutout,Private,,12,Width 3ft,37.74124251,-122.4126583
25349,DPW Maintained,Arbutus 'Marina' :: Hybrid Strawberry Tree,40X Geneva Ave,1,Sidewalk: Curb side : Cutout,DPW,3/18/03 0:00,3,3X3,37.72253177,-122.4515453
17034,DPW Maintained,Tristaniopsis laurina :: Swamp Myrtle,1160X Oak St,3,Sidewalk: Curb side : Cutout,DPW,9/30/14 13:41,3,,37.77307325,-122.4384448
27055,DPW Maintained,Arbutus 'Marina' :: Hybrid Strawberry Tree,1045 Silver Ave,1,Sidewalk: Curb side : Cutout,DPW,3/21/05 0:00,3,2X3,37.7292434,-122.4153641
250992,DPW Maintained,Arbutus 'Marina' :: Hybrid Strawberry Tree,401 45th Ave,3,Sidewalk: Property side : Yard,Private,,5,Width 6ft,37.7805573,-122.5063757
132543,DPW Maintained,Pittosporum undulatum :: Victorian Box,51 Prado St,4,Sidewalk: Curb side : Cutout,Private,,7,Width 3ft,37.80455106,-122.4416974
63575,DPW Maintained,Pittosporum undulatum :: Victorian Box,1335 Filbert St,1,Sidewalk: Curb side : Cutout,Private,4/30/87 0:00,9,,37.79974906,-122.4215562
52390,Permitted Site,Prunus cerasifera :: Cherry Plum,99X Park St,2,Sidewalk: Curb side : Cutout,Private,12/14/05 0:00,5,3x3,37.73687737,-122.4240941
236956,DPW Maintained,Prunus cerasifera :: Cherry Plum,197 Bonview St,1,Sidewalk: Curb side : Cutout,Private,,5,Width 3ft,37.74092553,-122.4181451
119067,DPW Maintained,Prunus serrulata 'Kwanzan' :: Kwanzan Flowering Cherry,575 45th Ave,2,Sidewalk: Curb side : Cutout,Private,,1,Width 3ft,37.77763175,-122.5061386
236623,DPW Maintained,Prunus cerasifera :: Cherry Plum,3225 22nd St,3,Sidewalk: Curb side : Cutout,Private,,8,Width 3ft,37.75535773,-122.4190829
92914,Undocumented,Pittosporum undulatum :: Victorian Box,328 West Portal Ave,1,Sidewalk: Curb side : Cutout,Private,,8,,37.73741086,-122.4692543
124297,DPW Maintained,Pittosporum undulatum :: Victorian Box,199 Jordan Ave,2,Sidewalk: Curb side : Cutout,Private,,6,Width 3ft,37.78168009,-122.4567513
213412,DPW Maintained,Prunus serrulata 'Kwanzan' :: Kwanzan Flowering Cherry,2295 16th Ave,1,Sidewalk: Curb side : Cutout,Private,,4,Width 3ft,37.74516046,-122.4729866
40822,DPW Maintained,Prunus cerasifera :: Cherry Plum,695 05th St,3,Sidewalk: Curb side : Cutout,Private,8/26/99 0:00,3,3x3,37.77560444,-122.3973872
135020,DPW Maintained,Platanus x hispanica :: Sycamore: London Plane,1200 Battery St,2,Sidewalk: Curb side : Cutout,Private,,8,Width 3ft,37.80257729,-122.4017591
65528,DPW Maintained,Magnolia grandiflora :: Southern Magnolia,1406 Polk St,1,Sidewalk: Curb side : Cutout,Private,2/20/90 0:00,3,,37.78980257,-122.4204439
23653,DPW Maintained,Platanus x hispanica :: Sycamore: London Plane,224 Virginia Ave,1,Sidewalk: Curb side : Cutout,DPW,,20,3X3,37.74216202,-122.419256
214900,DPW Maintained,Tristaniopsis laurina :: Swamp Myrtle,69 Forest Side Ave,1,Sidewalk: Curb side : Cutout,Private,,9,Width 3ft,37.74213273,-122.4682339
202814,DPW Maintained,Lophostemon confertus :: Brisbane Box,560 Mission Bay Blvd North,8,Sidewalk: Curb side : Cutout,Private,,3,Width 5ft,37.77100001,-122.3919067
219872,DPW Maintained,Arbutus 'Marina' :: Hybrid Strawberry Tree,55 Peters Ave,1,Sidewalk: Curb side : Cutout,Private,,8,Width 3ft,37.74476481,-122.4197127
208557,DPW Maintained,Magnolia grandiflora :: Southern Magnolia,1747 17th Ave,1,Sidewalk: Curb side : Cutout,Private,,6,Width 2ft,37.75527464,-122.474478
178609,DPW Maintained,Platanus x hispanica :: Sycamore: London Plane,1250 Alemany Blvd,2,Sidewalk: Curb side : Cutout,Private,,14,Width 3ft,37.73041979,-122.43214
177166,DPW Maintained,Lophostemon confertus :: Brisbane Box,2899 Alemany Blvd,1,Sidewalk: Curb side : Cutout,Private,,13,Width 2ft,37.71206827,-122.4517333
127466,DPW Maintained,Ficus microcarpa nitida 'Green Gem' :: Indian Laurel Fig Tree 'Green Gem',726 Sutter St,4,Sidewalk: Curb side : Cutout,Private,,15,Width 4ft,37.78880006,-122.4124238
140773,DPW Maintained,Metrosideros excelsa :: New Zealand Xmas Tree,90 Fortuna Ave,1,Sidewalk: Curb side : Cutout,Private,,4,Width 0ft,37.78131959,-122.442849
76301,DPW Maintained,Platanus x hispanica :: Sycamore: London Plane,2 Townsend St,6,Sidewalk: Curb side : Cutout,Private,,13,,37.78175987,-122.3891816
190207,DPW Maintained,Ficus microcarpa nitida 'Green Gem' :: Indian Laurel Fig Tree 'Green Gem',55 Main St,4,Sidewalk: Curb side : Cutout,Private,,10,Width 3ft,37.79251827,-122.3956376
104038,Permitted Site,Arbutus 'Marina' :: Hybrid Strawberry Tree,881 Shotwell St,1,Sidewalk: Curb side : Cutout,Private,12/19/14 0:00,3,3x3,37.75435143,-122.4152118
225558,DPW Maintained,Ficus microcarpa nitida 'Green Gem' :: Indian Laurel Fig Tree 'Green Gem',56 Deming St,2,Sidewalk: Curb side : Cutout,Private,,15,Width 3ft,37.76050236,-122.4455148
60308,DPW Maintained,Platanus x hispanica :: Sycamore: London Plane,1748 Grove St,1,Sidewalk: Curb side : Cutout,Private,10/7/82 0:00,9,,37.77504909,-122.4454422
260400,Private,Tristaniopsis laurina :: Swamp Myrtle,190 Parker Ave,4,Sidewalk: Curb side : Cutout,Private,8/21/19 0:00,3,,37.78186647,-122.4541596
97232,DPW Maintained,Pittosporum undulatum :: Victorian Box,1300X Newcomb Ave,12,Median : Cutout,DPW,,6,15x200,37.73294877,-122.3857003
29335,DPW Maintained,Lophostemon confertus :: Brisbane Box,1500X Portola Dr,1,Median : Cutout,DPW,1/16/06 0:00,3,3X3,37.73667874,-122.4693298
181804,DPW Maintained,Arbutus 'Marina' :: Hybrid Strawberry Tree,1913 Santiago St,5,Sidewalk: Curb side : Cutout,Private,,5,Width 0ft,37.74431532,-122.4877839
210296,DPW Maintained,Metrosideros excelsa :: New Zealand Xmas Tree,1620 10th Ave,1,Sidewalk: Curb side : Pot,Private,,18,Width 3ft,37.75799187,-122.4668808
28612,DPW Maintained,Metrosideros excelsa :: New Zealand Xmas Tree,49 Ocean Ave,3,Sidewalk: Curb side : Cutout,DPW,,6,3X3,37.7236903,-122.4367653
139077,DPW Maintained,Metrosideros excelsa :: New Zealand Xmas Tree,2233 POST ST,6,Sidewalk: Curb side : Cutout,Private,,10,Width 0ft,37.78438659,-122.4385395
237861,DPW Maintained,Prunus cerasifera :: Cherry Plum,246 Bemis St,5,Sidewalk: Curb side : Yard,Private,,8,,37.73622015,-122.4320115
45509,DPW Maintained,Prunus serrulata 'Kwanzan' :: Kwanzan Flowering Cherry,2929 25th Ave,3,Sidewalk: Curb side : Cutout,Private,7/20/01 0:00,3,,37.73381042,-122.4811566
237810,DPW Maintained,Prunus cerasifera :: Cherry Plum,32 Chenery St,1,Sidewalk: Curb side : Cutout,Private,,8,Width 2ft,37.74132701,-122.4258102
234069,DPW Maintained,Pittosporum undulatum :: Victorian Box,2641 25th St,2,Sidewalk: Curb side : Cutout,Private,,11,Width 4ft,37.75175492,-122.4047422
130448,DPW Maintained,Magnolia grandiflora :: Southern Magnolia,2725 Broderick St,1,Sidewalk: Curb side : Cutout,Private,,13,Width 3ft,37.79548271,-122.4437368
130638,DPW Maintained,Magnolia grandiflora :: Southern Magnolia,2150 Steiner St,1,Sidewalk: Curb side : Cutout,Private,,17,Width 4ft,37.78941757,-122.4355411
89728,DPW Maintained,Arbutus 'Marina' :: Hybrid Strawberry Tree,1453 Anza St,3,Sidewalk: Curb side : Cutout,DPW,2/8/08 0:00,3,3x3,37.77905844,-122.4636374
236121,DPW Maintained,Pittosporum undulatum :: Victorian Box,82 Germania St,3,Sidewalk: Curb side : Cutout,Private,,7,Width 3ft,37.7707668,-122.4299441
248423,DPW Maintained,Lophostemon confertus :: Brisbane Box,1775 Waller St,2,Sidewalk: Curb side : Cutout,Private,,9,Width 0ft,37.76822562,-122.4529454
56701,DPW Maintained,Metrosideros excelsa :: New Zealand Xmas Tree,1630 42nd Ave,1,Sidewalk: Curb side : Cutout,Private,,12,,37.75624402,-122.5012639
100131,DPW Maintained,Tristaniopsis laurina :: Swamp Myrtle,155 05th St,3,Sidewalk: Curb side : Cutout,Private,10/2/12 0:00,3,3x3,37.78198244,-122.405412
238306,DPW Maintained,Prunus serrulata 'Kwanzan' :: Kwanzan Flowering Cherry,4612 19th St,2,Sidewalk: Curb side : Cutout,Private,,10,Width 3ft,37.75904597,-122.4411041
214684,DPW Maintained,Prunus serrulata 'Kwanzan' :: Kwanzan Flowering Cherry,55 Madrone Ave,2,Sidewalk: Curb side : Cutout,Private,,3,Width 3ft,37.74259945,-122.4670996
195317,DPW Maintained,Platanus x hispanica :: Sycamore: London Plane,101 Market St,15,Sidewalk: Curb side : Cutout,Private,,9,Width 4ft,37.79360512,-122.3956823
127420,DPW Maintained,Ficus microcarpa nitida 'Green Gem' :: Indian Laurel Fig Tree 'Green Gem',1890 Clay St,6,Sidewalk: Curb side : Cutout,Private,,23,Width 4ft,37.79204449,-122.4241824
218336,DPW Maintained,Prunus cerasifera :: Cherry Plum,50 Montalvo Ave,1,Sidewalk: Curb side : Yard,Private,,4,Width 0ft,37.74531989,-122.4654915
135283,DPW Maintained,Platanus x hispanica :: Sycamore: London Plane,1000 The Embarcadero,1,Sidewalk: Curb side : Cutout,Private,,10,Width 4ft,37.80065771,-122.3991807
127209,DPW Maintained,Ficus microcarpa nitida 'Green Gem' :: Indian Laurel Fig Tree 'Green Gem',2332 Baker St,3,Sidewalk: Curb side : Cutout,Private,,6,Width 3ft,37.79268454,-122.4446878
6147,DPW Maintained,Platanus x hispanica :: Sycamore: London Plane,939 Ellis St,3,Sidewalk: Curb side : Cutout,DPW,,6,4x4,37.78364647,-122.4218346
5553,DPW Maintained,Ficus microcarpa nitida 'Green Gem' :: Indian Laurel Fig Tree 'Green Gem',966 Dolores St,1,Sidewalk: Curb side : Cutout,DPW,,34,6x9,37.7539699,-122.4255004
234618,DPW Maintained,Platanus x hispanica :: Sycamore: London Plane,4032 25th St,2,Sidewalk: Curb side : Cutout,Private,,13,Width 3ft,37.74997246,-122.4303417
241848,DPW Maintained,Tristaniopsis laurina :: Swamp Myrtle,678 Moultrie St,1,Sidewalk: Curb side : Cutout,Private,,1,Width 3ft,37.73621122,-122.4161
127837,DPW Maintained,Ficus microcarpa nitida 'Green Gem' :: Indian Laurel Fig Tree 'Green Gem',1907 Hyde St,1,Sidewalk: Curb side : Cutout,Private,,18,Width 5ft,37.79841477,-122.4189521
123650,DPW Maintained,Tristaniopsis laurina :: Swamp Myrtle,211 Cornwall St,1,Sidewalk: Curb side : Cutout,Private,,7,Width 4ft,37.7850091,-122.4620532
194981,DPW Maintained,Pittosporum undulatum :: Victorian Box,705 Natoma St,5,Sidewalk: Curb side : Cutout,Private,,6,Width 2ft,37.77649873,-122.4123015
17186,Permitted Site,Magnolia grandiflora :: Southern Magnolia,1765X Bush St,3,Sidewalk: Curb side : Cutout,Private,,6,2X2,37.78786864,-122.426271
63395,DPW Maintained,Metrosideros excelsa :: New Zealand Xmas Tree,345 Taylor St,1,Sidewalk: Curb side : Cutout,Private,2/18/87 0:00,6,,37.78564369,-122.411357
135610,DPW Maintained,Platanus x hispanica :: Sycamore: London Plane,450x The Embarcadero,21,Median : Yard,DPW,,7,,37.79569398,-122.3945729
15143,Permitted Site,Lophostemon confertus :: Brisbane Box,780X Mission St,7,Sidewalk: Curb side : Cutout,Private,,12,3x3,37.78470686,-122.4041289
98626,DPW Maintained,Ficus microcarpa nitida 'Green Gem' :: Indian Laurel Fig Tree 'Green Gem',3500X Fillmore St,5,Sidewalk: Curb side : Cutout,SFUSD,,6,6x6,37.80139499,-122.4362659
18990,DPW Maintained,Platanus x hispanica :: Sycamore: London Plane,2961X Sacramento St,1,Sidewalk: Curb side : Cutout,Private,,12,4X4,37.7888043,-122.4416095
9231,Permitted Site,Metrosideros excelsa :: New Zealand Xmas Tree,6333 Geary Blvd,7,Sidewalk: Curb side : Cutout,Private,,6,3X3,37.7798277,-122.4872307
24591,DPW Maintained,Metrosideros excelsa :: New Zealand Xmas Tree,515 Cortland Ave,1,Sidewalk: Curb side : Cutout,DPW,,12,3X3,37.7390819,-122.416121
127185,DPW Maintained,Ficus microcarpa nitida 'Green Gem' :: Indian Laurel Fig Tree 'Green Gem',3126 Clay St,1,Sidewalk: Curb side : Cutout,Private,,17,Width 4ft,37.7894453,-122.4446756
25570,DPW Maintained,Platanus x hispanica :: Sycamore: London Plane,50X Industrial St,15,Sidewalk: Curb side : Cutout,DPW,,12,4X4,37.73993926,-122.4003467
164229,Section 806 (d),Lophostemon confertus :: Brisbane Box,2401 17th Ave,2,Sidewalk: Curb side : Cutout,Private,8/12/20 0:00,3,3x3,37.74282422,-122.4736131
218003,DPW Maintained,Prunus cerasifera :: Cherry Plum,2555 18th Ave,3,Sidewalk: Curb side : Cutout,Private,,3,Width 3ft,37.73962371,-122.4743092
22431,Permitted Site,Lophostemon confertus :: Brisbane Box,5945 03rd St,2,Sidewalk: Curb side : Cutout,Private,1/18/08 0:00,3,3X3,37.72396111,-122.394868
134800,DPW Maintained,Platanus x hispanica :: Sycamore: London Plane,1070 Lombard St,4,Sidewalk: Curb side : Yard,Private,,8,,37.8021304,-122.4191675
132510,DPW Maintained,Pittosporum undulatum :: Victorian Box,2303 Filbert St,1,Sidewalk: Curb side : Cutout,Private,,2,Width 3ft,37.79772134,-122.4375661
134240,DPW Maintained,Platanus x hispanica :: Sycamore: London Plane,2090 Broadway,2,Sidewalk: Curb side : Cutout,Private,,12,Width 4ft,37.79480701,-122.431479
14156,DPW Maintained,Platanus x hispanica :: Sycamore: London Plane,1700 Market St,3,Sidewalk: Curb side : Cutout,DPW,,12,4x4,37.77280262,-122.4224406
2695,DPW Maintained,Metrosideros excelsa :: New Zealand Xmas Tree,2111 Bush St,1,Sidewalk: Curb side : Cutout,DPW,11/17/03 0:00,3,3x3,37.7872832,-122.431948
229688,DPW Maintained,Magnolia grandiflora :: Southern Magnolia,857 Alabama St,1,Sidewalk: Curb side : Cutout,Private,,2,Width 4ft,37.75820413,-122.4114319
96561,DPW Maintained,Ficus microcarpa nitida 'Green Gem' :: Indian Laurel Fig Tree 'Green Gem',421 Hamilton St,1,Sidewalk: Curb side : Cutout,Private,,10,2x2,37.72571724,-122.4092983
219665,DPW Maintained,Arbutus 'Marina' :: Hybrid Strawberry Tree,4924 17th St,1,Sidewalk: Curb side : Cutout,Private,,12,Width 3ft,37.76158498,-122.4510503
67949,DPW Maintained,Ficus microcarpa nitida 'Green Gem' :: Indian Laurel Fig Tree 'Green Gem',650 23rd Ave,1,Sidewalk: Curb side : Cutout,Private,3/22/93 0:00,10,,37.77541192,-122.4821757
90420,DPW Maintained,Tristaniopsis laurina :: Swamp Myrtle,170 Duboce Ave,1,Sidewalk: Curb side : Cutout,DPW,2/22/08 0:00,3,3x3,37.76982832,-122.4239387
12843,DPW Maintained,Tristaniopsis laurina :: Swamp Myrtle,2331 Lake St,1,Sidewalk: Curb side : Cutout,Private,,12,3X3,37.78569768,-122.4846386
180038,DPW Maintained,Tristaniopsis laurina :: Swamp Myrtle,1800x Alemany Blvd,30,Median : Cutout,DPW,,3,Width 2ft,37.72186728,-122.4384961
135997,DPW Maintained,Prunus serrulata 'Kwanzan' :: Kwanzan Flowering Cherry,1101 Washington St,6,Sidewalk: Curb side : Cutout,Private,,4,Width 2ft,37.79444066,-122.411669
196509,DPW Maintained,Prunus serrulata 'Kwanzan' :: Kwanzan Flowering Cherry,50 Matthew Ct,1,Sidewalk: Curb side : Cutout,Private,,9,Width 3ft,37.73138452,-122.3801002
13522,DPW Maintained,Platanus x hispanica :: Sycamore: London Plane,388 Market St,5,Sidewalk: Curb side : Cutout,DPW,,20,4x4,37.79187674,-122.398261
242113,DPW Maintained,Tristaniopsis laurina :: Swamp Myrtle,1149 Sanchez St,2,Sidewalk: Curb side : Cutout,Private,,11,Width 3ft,37.75091773,-122.4295024
28920,DPW Maintained,Tristaniopsis laurina :: Swamp Myrtle,310 07th St,1,Sidewalk: Curb side : Cutout,Private,2/11/06 0:00,3,3x3,37.7763267,-122.4074736
70322,DPW Maintained,Magnolia grandiflora :: Southern Magnolia,212 Cole St,1,Sidewalk: Curb side : Cutout,Private,,4,,37.77304749,-122.4508504
1304,DPW Maintained,Lophostemon confertus :: Brisbane Box,4000X Alemany Blvd,12,Median : Cutout,DPW,,35,10,37.70985942,-122.4706614
53295,Permitted Site,Prunus cerasifera :: Cherry Plum,4109 23rd St,1,Sidewalk: Curb side : Cutout,Private,5/26/11 0:00,6,3x3,37.75280601,-122.4344694
137582,DPW Maintained,Pittosporum undulatum :: Victorian Box,1150 PIERCE ST,3,Sidewalk: Curb side : Cutout,Private,,4,Width 0ft,37.78035831,-122.4354006
7751,DPW Maintained,Platanus x hispanica :: Sycamore: London Plane,400X Franklin St,8,Sidewalk: Curb side : Cutout,Private,,12,3X3,37.77855682,-122.4215424
91016,DPW Maintained,Metrosideros excelsa :: New Zealand Xmas Tree,4045 Cabrillo St,1,Sidewalk: Curb side : Cutout,DPW,11/24/08 0:00,3,3x3,37.77354162,-122.5023333
237570,DPW Maintained,Prunus cerasifera :: Cherry Plum,15 Hancock St,2,Sidewalk: Curb side : Cutout,Private,,3,Width 3ft,37.76041177,-122.4285756
229613,DPW Maintained,Magnolia grandiflora :: Southern Magnolia,365 Richland Ave,2,Sidewalk: Curb side : Cutout,Private,,4,Width 3ft,37.7357218,-122.4179844
3076,DPW Maintained,Platanus x hispanica :: Sycamore: London Plane,2901 California St,1,Sidewalk: Curb side : Cutout,Private,,100,3X3,37.78771301,-122.4425343
68172,DPW Maintained,Prunus cerasifera :: Cherry Plum,183 Beaumont Ave,1,Sidewalk: Curb side : Cutout,Private,6/3/93 0:00,5,,37.77814366,-122.4544834
234984,DPW Maintained,Pittosporum undulatum :: Victorian Box,4362 24th St,1,Sidewalk: Curb side : Cutout,Private,,22,Width 3ft,37.75100862,-122.4398338
120176,DPW Maintained,Ficus microcarpa nitida 'Green Gem' :: Indian Laurel Fig Tree 'Green Gem',100 26th Ave,2,Sidewalk: Curb side : Cutout,Private,,6,Width 3ft,37.78729962,-122.4862494
103621,DPW Maintained,Prunus cerasifera :: Cherry Plum,3982 Sacramento St,1,Sidewalk: Curb side : Cutout,Private,12/11/13 0:00,12,3x3,37.78678057,-122.4585398
92438,DPW Maintained,Arbutus 'Marina' :: Hybrid Strawberry Tree,2290 44th Ave,1,Sidewalk: Curb side : Cutout,Private,7/30/09 0:00,2,3x3,37.74392407,-122.5025493
238628,DPW Maintained,Platanus x hispanica :: Sycamore: London Plane,870 Castro St,1,Sidewalk: Curb side : Yard,Private,,12,Width 4ft,37.75510376,-122.4345359
214960,DPW Maintained,Tristaniopsis laurina :: Swamp Myrtle,96 San Andreas Way,2,Sidewalk: Curb side : Yard,Private,,2,Width 4ft,37.7327287,-122.4646226
199779,DPW Maintained,Pittosporum undulatum :: Victorian Box,1651 Hawes St,1,Sidewalk: Curb side : Cutout,Private,,5,Width 0ft,37.72576077,-122.3840894
204903,DPW Maintained,Arbutus 'Marina' :: Hybrid Strawberry Tree,400 Wildwood Way,2,Sidewalk: Curb side : Cutout,Private,,13,Width 2ft,37.72762587,-122.458573
141647,DPW Maintained,Metrosideros excelsa :: New Zealand Xmas Tree,2572 MCALLISTER ST,1,Sidewalk: Curb side : Cutout,Private,,16,Width 0ft,37.77562962,-122.4543918
29340,DPW Maintained,Lophostemon confertus :: Brisbane Box,1500X Portola Dr,6,Median : Cutout,DPW,1/16/06 0:00,3,3X3,37.73667874,-122.4693298
124486,DPW Maintained,Tristaniopsis laurina :: Swamp Myrtle,3058 Turk Blvd,2,Sidewalk: Curb side : Cutout,Private,,5,Width 3ft,37.77754993,-122.4563295
175255,DPW Maintained,Arbutus 'Marina' :: Hybrid Strawberry Tree,623 London St,4,Sidewalk: Curb side : Yard,Private,,7,,37.71926637,-122.4378081
103896,DPW Maintained,Arbutus 'Marina' :: Hybrid Strawberry Tree,17 17th Ave,1,Sidewalk: Curb side : Cutout,Private,6/15/13 0:00,2,3x3,37.78669442,-122.4766904
229336,DPW Maintained,Magnolia grandiflora :: Southern Magnolia,2125 Bryant St,11,Sidewalk: Curb side : Cutout,Private,,3,Width 3ft,37.75979979,-122.4098352
8051,Permitted Site,Pittosporum undulatum :: Victorian Box,601X Fulton St,2,Sidewalk: Curb side : Cutout,Private,5/7/90 0:00,12,3x3,37.77824291,-122.4267982
90844,DPW Maintained,Arbutus 'Marina' :: Hybrid Strawberry Tree,2551X Cabrillo St,1,Sidewalk: Curb side : Cutout,DPW,2/19/08 0:00,3,3x3,37.77426859,-122.4862726
177226,DPW Maintained,Lophostemon confertus :: Brisbane Box,19 Cotter St,1,Sidewalk: Curb side : Cutout,Private,,9,Width 3ft,37.72726414,-122.4331972
27822,Permitted Site,Platanus x hispanica :: Sycamore: London Plane,350X The Embarcadero,21,Sidewalk: Curb side : Cutout,Port,7/15/94 0:00,12,4x4,37.79806025,-122.3963595
229902,DPW Maintained,Magnolia grandiflora :: Southern Magnolia,1718 Diamond St,2,Sidewalk: Curb side : Cutout,Private,,2,Width 4ft,37.74372226,-122.4356517
26638,DPW Maintained,Tristaniopsis laurina :: Swamp Myrtle,1158 Church St,1,Sidewalk: Curb side : Cutout,DPW,,6,3X3,37.75235891,-122.427582
143288,DPW Maintained,Platanus x hispanica :: Sycamore: London Plane,900 MARKET ST,9,Sidewalk: Curb side : Cutout,Private,,10,Width 0ft,37.78373594,-122.4085489
55973,DPW Maintained,Prunus cerasifera :: Cherry Plum,2221 Webster St,1,Sidewalk: Curb side : Cutout,Private,6/10/19 0:00,3,,37.79125875,-122.4327195
213566,DPW Maintained,Prunus serrulata 'Kwanzan' :: Kwanzan Flowering Cherry,125 Merced Ave,2,Sidewalk: Curb side : Cutout,Private,,3,Width 3ft,37.74465847,-122.4611516
14317,DPW Maintained,Platanus x hispanica :: Sycamore: London Plane,2190X Market St,7,Sidewalk: Curb side : Cutout,DPW,,12,4X4,37.76617846,-122.4308403
126834,DPW Maintained,Ficus microcarpa nitida 'Green Gem' :: Indian Laurel Fig Tree 'Green Gem',106 Cervantes Blvd,2,Sidewalk: Curb side : Cutout,Private,,9,Width 3ft,37.80423427,-122.4393928
3051,DPW Maintained,Platanus x hispanica :: Sycamore: London Plane,2704 California St,1,Sidewalk: Curb side : Cutout,DPW,,12,3X3,37.78831437,-122.4393027
215442,DPW Maintained,Tristaniopsis laurina :: Swamp Myrtle,1231 17th Ave,1,Sidewalk: Curb side : Cutout,Private,,7,Width 2ft,37.76490038,-122.4751469
140739,DPW Maintained,Metrosideros excelsa :: New Zealand Xmas Tree,2049 O'Farrell St,1,Sidewalk: Curb side : Cutout,Private,,15,Width 0ft,37.78251504,-122.4382484
140732,Permitted Site,Metrosideros excelsa :: New Zealand Xmas Tree,2019 O'Farrell St,2,Sidewalk: Curb side : Cutout,Private,,12,Width 0ft,37.78256818,-122.4378433
183181,DPW Maintained,Prunus cerasifera :: Cherry Plum,2401 40th Ave,1,Sidewalk: Curb side : Cutout,Private,,4,Width 0ft,37.74186076,-122.4982499
245088,DPW Maintained,Pittosporum undulatum :: Victorian Box,120 Lyon St,1,Sidewalk: Curb side : Cutout,Private,,7,Width 0ft,37.77226129,-122.4422521
128740,DPW Maintained,Ficus microcarpa nitida 'Green Gem' :: Indian Laurel Fig Tree 'Green Gem',501 Pacific Ave,2,Sidewalk: Curb side : Cutout,Private,,15,Width 2ft,37.79721853,-122.4038578
67378,DPW Maintained,Magnolia grandiflora :: Southern Magnolia,815 Balboa St,1,Sidewalk: Curb side : Cutout,Private,7/27/92 0:00,5,,37.77699344,-122.4675438
133877,DPW Maintained,Platanus x hispanica :: Sycamore: London Plane,2897 Broadway,6,Sidewalk: Curb side : Cutout,Private,,5,Width 4ft,37.79298538,-122.4445528
44731,DPW Maintained,Tristaniopsis laurina :: Swamp Myrtle,1250 Quintara St,3,Sidewalk: Curb side : Cutout,Private,4/3/01 0:00,4,,37.74860367,-122.4789302
21891,DPW Maintained,Lophostemon confertus :: Brisbane Box,2030 03rd St,1,Sidewalk: Curb side : Cutout,Private,11/22/99 0:00,3,2X3,37.76374553,-122.3889508
102636,DPW Maintained,Pittosporum undulatum :: Victorian Box,2176 Mission St,2,Sidewalk: Curb side : Cutout,Private,2/8/13 0:00,3,5x5,37.76220528,-122.4194426
60874,DPW Maintained,Lophostemon confertus :: Brisbane Box,801 Greenwich St,1,Sidewalk: Curb side : Cutout,Private,3/21/02 0:00,7,,37.80179415,-122.4131496
33324,DPW Maintained,Magnolia grandiflora :: Southern Magnolia,3118 Gough St,1,Sidewalk: Curb side : Cutout,Private,11/14/96 0:00,4,,37.80223212,-122.4280103
250259,DPW Maintained,Platanus x hispanica :: Sycamore: London Plane,39 Leavenworth St,13,Sidewalk: Curb side : Cutout,Private,,17,Width 0ft,37.78028972,-122.413663
235251,DPW Maintained,Pittosporum undulatum :: Victorian Box,3896 18th St,1,Sidewalk: Curb side : Cutout,Private,,14,Width 3ft,37.76123437,-122.4303495
3977,Permitted Site,Magnolia grandiflora :: Southern Magnolia,240 Castro St,2,Sidewalk: Curb side : Cutout,Private,,12,3X3,37.76507105,-122.4354962
191647,DPW Maintained,Lophostemon confertus :: Brisbane Box,151 03rd St,2,Sidewalk: Curb side : Cutout,Private,,9,Width 4ft,37.78556501,-122.401007
120941,DPW Maintained,Ficus microcarpa nitida 'Green Gem' :: Indian Laurel Fig Tree 'Green Gem',485 Carolina St,3,Sidewalk: Curb side : Cutout,Private,,10,3x3,37.76311228,-122.4003675
50212,DPW Maintained,Prunus cerasifera :: Cherry Plum,773@ CABRILLO 28th Ave,1,Sidewalk: Curb side : Cutout,Private,8/21/03 0:00,5,,37.77484103,-122.4876698
14395,DPW Maintained,Platanus x hispanica :: Sycamore: London Plane,2390 Market St,1,Sidewalk: Curb side : Cutout,DPW,,12,4x4,37.76301347,-122.4348016
27795,DPW Maintained,Platanus x hispanica :: Sycamore: London Plane,900X The Embarcadero,1,Sidewalk: Curb side : Cutout,Port,12/18/00 0:00,24,,37.80019555,-122.3987633
113520,DPW Maintained,Platanus x hispanica :: Sycamore: London Plane,201 Turk St,6,Sidewalk: Curb side : Cutout,Private,,4,,37.78287329,-122.4127911
234302,DPW Maintained,Pittosporum undulatum :: Victorian Box,237 Lexington St,1,Sidewalk: Curb side : Cutout,Private,,7,Width 3ft,37.75953995,-122.4205664
123410,DPW Maintained,Platanus x hispanica :: Sycamore: London Plane,475 03rd Ave,2,Sidewalk: Curb side : Cutout,Private,,11,Width 4ft,37.77970202,-122.4610416
75296,DPW Maintained,Magnolia grandiflora :: Southern Magnolia,242 Cole St,2,Sidewalk: Curb side : Cutout,Private,,2,,37.77257527,-122.4507571
66412,DPW Maintained,Ficus microcarpa nitida 'Green Gem' :: Indian Laurel Fig Tree 'Green Gem',33 Dashiell Hammett St,1,Sidewalk: Curb side : Cutout,Private,2/11/91 0:00,12,,37.79076208,-122.4080194
238736,DPW Maintained,Platanus x hispanica :: Sycamore: London Plane,720 Alabama St,2,Sidewalk: Curb side : Cutout,Private,,4,Width 3ft,37.76019158,-122.411764
202600,DPW Maintained,Lophostemon confertus :: Brisbane Box,701 Division St,2,Sidewalk: Curb side : Cutout,Private,,6,Width 5ft,37.76994501,-122.4025642
29942,DPW Maintained,Tristaniopsis laurina :: Swamp Myrtle,206 Broad St,1,Sidewalk: Curb side : Cutout,Private,3/10/07 0:00,3,3x3,37.7132593,-122.4593678
67254,DPW Maintained,Metrosideros excelsa :: New Zealand Xmas Tree,2107 47th Ave,1,Sidewalk: Curb side : Cutout,Private,1/4/94 0:00,4,,37.7470841,-122.5061415
12991,Permitted Site,Platanus x hispanica :: Sycamore: London Plane,327 Lombard St,3,Sidewalk: Curb side : Cutout,Private,,12,3X3,37.80336606,-122.4069938
134460,DPW Maintained,Platanus x hispanica :: Sycamore: London Plane,490 McAllister St,2,Sidewalk: Curb side : Cutout,Private,,11,Width 4ft,37.78019415,-122.419965
86524,DPW Maintained,Tristaniopsis laurina :: Swamp Myrtle,1419 27th Ave,1,Sidewalk: Curb side : Cutout,DPW,12/26/06 0:00,3,3x3,37.76088472,-122.4856059
219670,DPW Maintained,Arbutus 'Marina' :: Hybrid Strawberry Tree,4624 17th St,1,Sidewalk: Curb side : Cutout,Private,,15,Width 3ft,37.76181059,-122.4472857
139349,DPW Maintained,Platanus x hispanica :: Sycamore: London Plane,1400 GEARY BLVD,8,Sidewalk: Curb side : Cutout,Private,,15,Width 0ft,37.78527332,-122.4270978
29508,Permitted Site,Lophostemon confertus :: Brisbane Box,1850X Ingalls St,2,Sidewalk: Curb side : Cutout,Fire Dept,2/28/06 0:00,3,3x3,37.72775297,-122.3851088
94545,Permitted Site,Tristaniopsis laurina :: Swamp Myrtle,128 Downey St,1,Sidewalk: Curb side : Cutout,Private,,12,3x3,37.76661182,-122.4470485
190321,DPW Maintained,Ficus microcarpa nitida 'Green Gem' :: Indian Laurel Fig Tree 'Green Gem',95 Hawthorne St,2,Sidewalk: Curb side : Cutout,Private,,14,Width 2ft,37.78483449,-122.3979579
51217,DPW Maintained,Pittosporum undulatum :: Victorian Box,148 Hamilton St,1,Sidewalk: Curb side : Cutout,Private,8/11/04 0:00,5,,37.72898889,-122.4108148
187050,DPW Maintained,Pittosporum undulatum :: Victorian Box,2501 Sunset Blvd,69,Sidewalk: Property side : Yard,Private,,7,Width 0ft,37.73886362,-122.494436
103282,Permitted Site,Magnolia grandiflora :: Southern Magnolia,3195X Jackson St,1,Sidewalk: Curb side : Cutout,Private,,3,4x4,37.79078072,-122.447396
139719,DPW Maintained,Platanus x hispanica :: Sycamore: London Plane,1111 GEARY BLVD,4,Sidewalk: Curb side : Cutout,Private,,8,Width 0ft,37.78502112,-122.4258831
236502,DPW Maintained,Prunus cerasifera :: Cherry Plum,4136 Folsom St,1,Sidewalk: Curb side : Cutout,Private,,8,Width 2ft,37.73538308,-122.4136876
262267,Section 806 (d),Tristaniopsis laurina :: Swamp Myrtle,10X Restani Stwy,1,Unaccepted Street : Yard,Private,6/19/20 0:00,3,3x3,37.71849332,-122.443402
5129,DPW Maintained,Metrosideros excelsa :: New Zealand Xmas Tree,2775 Diamond St,1,Sidewalk: Curb side : Cutout,DPW,7/18/83 0:00,10,3X3,37.73520158,-122.4337483
14190,DPW Maintained,Platanus x hispanica :: Sycamore: London Plane,1870 Market St,1,Sidewalk: Curb side : Cutout,DPW,,12,4X4,37.77109983,-122.4246065
15223,DPW Maintained,Lophostemon confertus :: Brisbane Box,1201 Mission St,2,Sidewalk: Curb side : Cutout,DPW,3/7/95 0:00,12,3X3,37.77718866,-122.4133326
126982,DPW Maintained,Ficus microcarpa nitida 'Green Gem' :: Indian Laurel Fig Tree 'Green Gem',2701 Octavia St,4,Sidewalk: Curb side : Cutout,Private,,12,Width 3ft,37.79715247,-122.428841
27384,Permitted Site,Lophostemon confertus :: Brisbane Box,2200 Hyde St,1,Sidewalk: Curb side : Cutout,Private,11/20/18 0:00,3,3X3,37.80119183,-122.4193687
86265,DPW Maintained,Tristaniopsis laurina :: Swamp Myrtle,1686 25th Ave,1,Sidewalk: Curb side : Cutout,DPW,12/12/06 0:00,3,3x3,37.7560768,-122.4829805
77663,DPW Maintained,Metrosideros excelsa :: New Zealand Xmas Tree,299X Cambridge St,14,Sidewalk: Curb side : Cutout,SFUSD,,4,3x3,37.728476,-122.4191798
214547,DPW Maintained,Prunus serrulata 'Kwanzan' :: Kwanzan Flowering Cherry,754 Irving St,1,Sidewalk: Curb side : Cutout,Private,,1,Width 3ft,37.7641313,-122.4660758
48575,DPW Maintained,Prunus serrulata 'Kwanzan' :: Kwanzan Flowering Cherry,2275 Beach St,1,Sidewalk: Curb side : Cutout,Private,8/27/02 0:00,6,,37.80328244,-122.4464662
15759,DPW Maintained,Tristaniopsis laurina :: Swamp Myrtle,4723 Mission St,1,Sidewalk: Curb side : Cutout,DPW,8/5/19 0:00,1,3x3,37.72263968,-122.4362275
130811,DPW Maintained,Magnolia grandiflora :: Southern Magnolia,2280 Pacific Ave,2,Sidewalk: Curb side : Cutout,Private,,5,Width 4ft,37.79368088,-122.432678
94816,DPW Maintained,Arbutus 'Marina' :: Hybrid Strawberry Tree,3837 Clay St,3,Sidewalk: Curb side : Cutout,Private,11/9/10 0:00,3,3x3,37.78787566,-122.4560508
1520,DPW Maintained,Pittosporum undulatum :: Victorian Box,410 Arguello Blvd,1,Sidewalk: Curb side : Cutout,Private,,30,3X3,37.78347874,-122.4589222
65220,DPW Maintained,Prunus cerasifera :: Cherry Plum,438 Paris St,1,Sidewalk: Curb side : Cutout,Private,7/24/89 0:00,15,,37.7218238,-122.434908
213145,DPW Maintained,Metrosideros excelsa :: New Zealand Xmas Tree,400 Holloway Ave,2,Sidewalk: Curb side : Cutout,Private,,15,Width 3ft,37.72189244,-122.4573626
27761,DPW Maintained,Lophostemon confertus :: Brisbane Box,1099X Cesar Chavez St,3,Sidewalk: Curb side : Cutout,DPW,,10,3x3,37.75013923,-122.3884733
193228,DPW Maintained,Magnolia grandiflora :: Southern Magnolia,970 Howard St,1,Sidewalk: Curb side : Cutout,Private,,6,Width 3ft,37.78041286,-122.4064766
230435,DPW Maintained,Magnolia grandiflora :: Southern Magnolia,17 Stoneman St,1,Sidewalk: Curb side : Cutout,Private,,2,Width 4ft,37.74505881,-122.4139035
5366,DPW Maintained,Magnolia grandiflora :: Southern Magnolia,241 Dolores St,1,Sidewalk: Curb side : Cutout,Private,8/3/11 0:00,3,3x3,37.76559531,-122.4263203
235040,DPW Maintained,Pittosporum undulatum :: Victorian Box,457 Collingwood St,1,Sidewalk: Curb side : Cutout,Private,,17,Width 2ft,37.75514134,-122.435513
123527,DPW Maintained,Arbutus 'Marina' :: Hybrid Strawberry Tree,2850 Fulton St,1,Sidewalk: Property side : Yard,Private,,8,Width 8ft,37.77393245,-122.4624842
241467,DPW Maintained,Tristaniopsis laurina :: Swamp Myrtle,200 Hoffman Ave,2,Sidewalk: Curb side : Cutout,Private,,10,Width 4ft,37.75235373,-122.4408215
89379,DPW Maintained,Arbutus 'Marina' :: Hybrid Strawberry Tree,1144 Anza St,1,Sidewalk: Curb side : Cutout,DPW,2/6/08 0:00,3,3x3,37.7793356,-122.4606356
31645,DPW Maintained,Metrosideros excelsa :: New Zealand Xmas Tree,4500 Ulloa St,1,Sidewalk: Curb side : Cutout,Private,10/31/05 0:00,4,,37.73997613,-122.5046881
5574,DPW Maintained,Magnolia grandiflora :: Southern Magnolia,1040 Dolores St,1,Sidewalk: Curb side : Cutout,DPW,,18,3X3,37.75287064,-122.4253905
241719,DPW Maintained,Tristaniopsis laurina :: Swamp Myrtle,183 Peralta Ave,1,Sidewalk: Curb side : Cutout,Private,,4,Width 3ft,37.7467553,-122.4086721
62192,DPW Maintained,Pittosporum undulatum :: Victorian Box,129 Santa Ynez Ave,1,Sidewalk: Curb side : Cutout,Private,9/20/85 0:00,14,,37.72485103,-122.4407694
230819,DPW Maintained,Magnolia grandiflora :: Southern Magnolia,4300 18th St,1,Sidewalk: Curb side : Cutout,Private,,3,Width 3ft,37.76081368,-122.4373256
3237,DPW Maintained,Platanus x hispanica :: Sycamore: London Plane,265X Arguello Blvd,2,Sidewalk: Curb side : Cutout,DPW,,10,3x3,37.78573911,-122.4592702
17648,DPW Maintained,Lophostemon confertus :: Brisbane Box,650X Phelps St,3,Sidewalk: Curb side : Cutout,DPW,,3,2x2,37.74112632,-122.3902298
234603,DPW Maintained,Platanus x hispanica :: Sycamore: London Plane,847 Castro St,1,Sidewalk: Curb side : Cutout,Private,,8,Width 3ft,37.75540837,-122.4343852
101454,DPW Maintained,Lophostemon confertus :: Brisbane Box,102 Henry Adams St,3,Sidewalk: Curb side : Cutout,Private,,7,3x3,37.76831024,-122.4039712
201699,Planning Code 138.1 required,Lophostemon confertus :: Brisbane Box,342 08th St,7,Sidewalk: Curb side : Cutout,Private,9/12/17 0:00,3,3x6,37.77384185,-122.4087909
236329,DPW Maintained,Prunus cerasifera :: Cherry Plum,3388 19th St,2,Sidewalk: Curb side : Cutout,Private,,8,Width 3ft,37.76031945,-122.4188671
5665,DPW Maintained,Magnolia grandiflora :: Southern Magnolia,1375 Dolores St,2,Sidewalk: Curb side : Cutout,DPW,,12,3x3,37.74737327,-122.424584
230183,DPW Maintained,Magnolia grandiflora :: Southern Magnolia,1911 15th St,4,Sidewalk: Curb side : Cutout,Private,,3,Width 3ft,37.76618725,-122.4268607
121766,DPW Maintained,Tristaniopsis laurina :: Swamp Myrtle,1501x Illinois St,2,Sidewalk: Curb side : Cutout,Private,,3,3x3,37.75076495,-122.3865132
8558,DPW Maintained,Platanus x hispanica :: Sycamore: London Plane,2141 Geary Blvd,5,Sidewalk: Curb side : Cutout,Mayor Office of Housing,,18,3x3,37.78323024,-122.4388863
35214,DPW Maintained,Arbutus 'Marina' :: Hybrid Strawberry Tree,3835 Clement St,1,Sidewalk: Curb side : Cutout,Private,3/3/98 0:00,12,,37.7812297,-122.5005324
230197,DPW Maintained,Magnolia grandiflora :: Southern Magnolia,127 Douglass St,1,Sidewalk: Curb side : Cutout,Private,,13,Width 1ft,37.76158631,-122.4393595
65641,DPW Maintained,Metrosideros excelsa :: New Zealand Xmas Tree,510 46th Ave,1,Sidewalk: Curb side : Cutout,Private,3/22/90 0:00,12,,37.77874774,-122.507135
229453,DPW Maintained,Magnolia grandiflora :: Southern Magnolia,500 Buchanan St,3,Sidewalk: Curb side : Cutout,Private,,2,Width 2ft,37.77463254,-122.4275058
218614,DPW Maintained,Tristaniopsis laurina :: Swamp Myrtle,1800 18th Ave,2,Sidewalk: Curb side : Cutout,Private,,4,Width 4ft,37.75398691,-122.4753177
25695,DPW Maintained,Platanus x hispanica :: Sycamore: London Plane,10X The Embarcadero,11,Sidewalk: Curb side : Cutout,DPW,,12,4X4,37.78269486,-122.3879851
91009,Permitted Site,Pittosporum undulatum :: Victorian Box,251 Balboa St,3,Sidewalk: Curb side : Cutout,Private,7/10/13 0:00,3,3x3,37.77730075,-122.4613386
224869,DPW Maintained,Ficus microcarpa nitida 'Green Gem' :: Indian Laurel Fig Tree 'Green Gem',177 Grand View Ave,2,Sidewalk: Property side : Yard,Private,,9,,37.75541738,-122.4401659
247458,DPW Maintained,Platanus x hispanica :: Sycamore: London Plane,977 Oak St,1,Sidewalk: Curb side : Yard,Private,,2,Width 0ft,37.77332518,-122.4353245
42962,DPW Maintained,Ficus microcarpa nitida 'Green Gem' :: Indian Laurel Fig Tree 'Green Gem',2510 Jackson St,1,Sidewalk: Curb side : Cutout,Private,,11,,37.79225576,-122.4367347
235868,DPW Maintained,Prunus cerasifera :: Cherry Plum,621 York St,1,Sidewalk: Curb side : Cutout,Private,,10,Width 3ft,37.76112575,-122.4089778
188151,DPW Maintained,Arbutus 'Marina' :: Hybrid Strawberry Tree,1240 03rd St,6,Sidewalk: Curb side : Cutout,Private,,15,Width 5ft,37.77248034,-122.3897947
235531,DPW Maintained,Platanus x hispanica :: Sycamore: London Plane,1999X Folsom St,8,Sidewalk: Curb side : Cutout,Private,,8,Width 4ft,37.76641607,-122.4152979
86229,DPW Maintained,Arbutus 'Marina' :: Hybrid Strawberry Tree,2442 25th Ave,1,Sidewalk: Curb side : Cutout,DPW,12/15/06 0:00,3,3x3,37.74196254,-122.4819811
10995,DPW Maintained,Prunus serrulata 'Kwanzan' :: Kwanzan Flowering Cherry,1544 Hudson Ave,1,Sidewalk: Curb side : Cutout,Private,,12,3X3,37.7395276,-122.3871922
265206,Private,Lophostemon confertus :: Brisbane Box,1200 Franklin St,5,Sidewalk: Curb side : Cutout,Private,1/21/21 0:00,3,,37.78551855,-122.4229648
53157,DPW Maintained,Tristaniopsis laurina :: Swamp Myrtle,1783@ NEWHALL Quesada Ave,2,Sidewalk: Curb side : Cutout,Private,11/2/06 0:00,4,,37.7341302,-122.3930448
20645,DPW Maintained,Metrosideros excelsa :: New Zealand Xmas Tree,1500X Sunset Blvd,5,Sidewalk: Curb side : Cutout,DPW,,12,10,37.7589162,-122.4956347
231260,DPW Maintained,Metrosideros excelsa :: New Zealand Xmas Tree,56 Cumberland St,1,Sidewalk: Curb side : Cutout,Private,,14,Width 4ft,37.75914393,-122.4248153
10835,DPW Maintained,Metrosideros excelsa :: New Zealand Xmas Tree,1139X Hudson Ave,42,Sidewalk: Curb side : Cutout,DPW,,12,3X4,37.7323951,-122.3802483
27915,Permitted Site,Platanus x hispanica :: Sycamore: London Plane,100 The Embarcadero,9,Sidewalk: Curb side : Cutout,Port,2/1/01 0:00,12,3X3,37.78105676,-122.3886575
126895,DPW Maintained,Ficus microcarpa nitida 'Green Gem' :: Indian Laurel Fig Tree 'Green Gem',3232 Pacific Ave,2,Sidewalk: Curb side : Cutout,Private,,10,Width 4ft,37.7917086,-122.448135
124188,DPW Maintained,Arbutus 'Marina' :: Hybrid Strawberry Tree,56 Almaden Ct,2,Sidewalk: Property side : Yard,Private,,9,Width 8ft,37.77993337,-122.4577444
51039,DPW Maintained,Prunus cerasifera :: Cherry Plum,926 Grove St,3,Sidewalk: Curb side : Cutout,Private,7/8/04 0:00,4,,37.7767218,-122.432202
91962,DPW Maintained,Pittosporum undulatum :: Victorian Box,145 Irving St,2,Sidewalk: Curb side : Cutout,DPW,2/19/09 0:00,3,3x3,37.76428975,-122.4592961
122917,DPW Maintained,Ficus microcarpa nitida 'Green Gem' :: Indian Laurel Fig Tree 'Green Gem',206 12th Ave,1,Sidewalk: Curb side : Cutout,Private,,6,Width 3ft,37.78421217,-122.4708752
60784,DPW Maintained,Prunus cerasifera :: Cherry Plum,114 Ewing Ter,1,Sidewalk: Curb side : Cutout,Private,3/14/83 0:00,3,,37.78030327,-122.4481586
98771,DPW Maintained,Pittosporum undulatum :: Victorian Box,1500X North Point St,6,Sidewalk: Property side : Cutout,Private,,10,3x3,37.80425194,-122.4324455
237101,DPW Maintained,Prunus serrulata 'Kwanzan' :: Kwanzan Flowering Cherry,1 Dearborn St,2,Sidewalk: Curb side : Cutout,Private,,5,Width 3ft,37.76306368,-122.4230054
30866,DPW Maintained,Ficus microcarpa nitida 'Green Gem' :: Indian Laurel Fig Tree 'Green Gem',8 Tioga Ave,1,Sidewalk: Curb side : Cutout,Private,2/16/95 0:00,13,,37.71570284,-122.4027874
34511,DPW Maintained,Lophostemon confertus :: Brisbane Box,18 Lansing St,2,Sidewalk: Curb side : Cutout,Private,7/17/97 0:00,2,,37.78619932,-122.393859
202691,DPW Maintained,Lophostemon confertus :: Brisbane Box,420 Mission Bay Blvd North,7,Sidewalk: Curb side : Cutout,Private,,6,Width 5ft,37.77119702,-122.3885047
29194,DPW Maintained,Arbutus 'Marina' :: Hybrid Strawberry Tree,3001X Ortega St,7,Sidewalk: Curb side : Cutout,DPW,3/18/06 0:00,3,3X3,37.75145675,-122.4956573
180092,DPW Maintained,Tristaniopsis laurina :: Swamp Myrtle,2200x Alemany Blvd,1,Median : Cutout,DPW,,3,Width 2ft,37.71768736,-122.4425162
28905,Permitted Site,Pittosporum undulatum :: Victorian Box,360X 05th St,2,Sidewalk: Curb side : Cutout,Private,2/11/06 0:00,7,3X3,37.77958336,-122.4026556
236473,DPW Maintained,Prunus cerasifera :: Cherry Plum,336 Moultrie St,1,Sidewalk: Curb side : Cutout,Private,,4,Width 3ft,37.73990757,-122.4158842
38890,DPW Maintained,Pittosporum undulatum :: Victorian Box,633 Palm Ave,2,Sidewalk: Curb side : Cutout,Private,11/2/98 0:00,7,,37.78449769,-122.4580563
61668,Permitted Site,Prunus cerasifera :: Cherry Plum,271 Church St,1,Sidewalk: Curb side : Cutout,Private,11/21/84 0:00,10,,37.76654569,-122.4287681
72320,DPW Maintained,Arbutus 'Marina' :: Hybrid Strawberry Tree,647 02nd Ave,1,Sidewalk: Curb side : Cutout,Private,,17,,37.77653827,-122.4597356
213403,DPW Maintained,Prunus serrulata 'Kwanzan' :: Kwanzan Flowering Cherry,2115 18th Ave,1,Sidewalk: Curb side : Cutout,Private,,7,Width 3ft,37.74834508,-122.4750718
182692,DPW Maintained,Arbutus 'Marina' :: Hybrid Strawberry Tree,1419 Moraga St,2,Sidewalk: Curb side : Cutout,Private,,6,Width 0ft,37.75596591,-122.4779437
133908,DPW Maintained,Platanus x hispanica :: Sycamore: London Plane,2800 Pacific Ave,6,Sidewalk: Curb side : Cutout,Private,,14,Width 3ft,37.79251445,-122.4418275
25871,Permitted Site,Platanus x hispanica :: Sycamore: London Plane,800X The Embarcadero,35,Sidewalk: Curb side : Cutout,Port,10/30/95 0:00,6,4X4,37.8020255,-122.4003557
127670,DPW Maintained,Ficus microcarpa nitida 'Green Gem' :: Indian Laurel Fig Tree 'Green Gem',400 Gough St,4,Sidewalk: Curb side : Cutout,Private,,23,Width 4ft,37.77716737,-122.4229604
237057,DPW Maintained,Prunus serrulata 'Kwanzan' :: Kwanzan Flowering Cherry,1 Albion St,4,Sidewalk: Curb side : Cutout,Private,,8,Width 2ft,37.76631636,-122.4232068
241619,DPW Maintained,Tristaniopsis laurina :: Swamp Myrtle,622 Prentiss St,1,Sidewalk: Curb side : Cutout,Private,,8,Width 3ft,37.73504883,-122.4124614
60799,DPW Maintained,Prunus cerasifera :: Cherry Plum,275 Ewing Ter,1,Sidewalk: Curb side : Cutout,Private,3/14/83 0:00,5,,37.77983262,-122.4488171
1781,DPW Maintained,Lophostemon confertus :: Brisbane Box,2001X Bay Shore Blvd,3,Sidewalk: Curb side : Cutout,DPW,12/30/91 0:00,5,3x3,37.71530726,-122.3988921
180274,DPW Maintained,Tristaniopsis laurina :: Swamp Myrtle,1204x Alemany Blvd,11,Median : Cutout,DPW,,3,Width 3ft,37.73027774,-122.4322063
204991,DPW Maintained,Arbutus 'Marina' :: Hybrid Strawberry Tree,920 Bosworth St,1,Sidewalk: Curb side : Cutout,Private,,5,Width 3ft,37.73417058,-122.4368352
68358,DPW Maintained,Prunus cerasifera :: Cherry Plum,655 21st Ave,1,Sidewalk: Curb side : Cutout,Private,8/9/93 0:00,7,,37.77547343,-122.4801866
143391,DPW Maintained,Platanus x hispanica :: Sycamore: London Plane,1150 MARKET ST,18,Sidewalk: Curb side : Cutout,Private,,7,Width 0ft,37.7797714,-122.4135674
61789,DPW Maintained,Pittosporum undulatum :: Victorian Box,1261 Rhode Island St,1,Sidewalk: Curb side : Cutout,Private,1/24/85 0:00,12,,37.75378399,-122.4014073
30445,DPW Maintained,Ficus microcarpa nitida 'Green Gem' :: Indian Laurel Fig Tree 'Green Gem',350 Union St,3,Sidewalk: Curb side : Cutout,Private,5/11/56 0:00,15,,37.80101957,-122.4051033
87879,DPW Maintained,Metrosideros excelsa :: New Zealand Xmas Tree,255 Marina Blvd,1,Sidewalk: Curb side : Cutout,Private,6/13/08 0:00,5,3x3,37.80642835,-122.4365086
238777,DPW Maintained,Platanus x hispanica :: Sycamore: London Plane,3070 23rd St,3,Sidewalk: Curb side : Cutout,Private,,17,Width 3ft,37.7541965,-122.4135029
117999,DPW Maintained,Metrosideros excelsa :: New Zealand Xmas Tree,10 Shore View Ave,3,Sidewalk: Curb side : Yard,Private,,4,Width 3ft,37.78067401,-122.4969443
117056,DPW Maintained,Pittosporum undulatum :: Victorian Box,214 Spruce St,1,Sidewalk: Property side : Cutout,Private,,12,3x3,37.78859318,-122.4537338
35924,Permitted Site,Arbutus 'Marina' :: Hybrid Strawberry Tree,2660 Pacific Ave,3,Sidewalk: Curb side : Cutout,Private,4/24/98 0:00,14,3x3,37.79287383,-122.4390314
129957,DPW Maintained,Lophostemon confertus :: Brisbane Box,1711 Green St,1,Sidewalk: Curb side : Cutout,Private,,2,Width 4ft,37.79708522,-122.4274723
231263,DPW Maintained,Metrosideros excelsa :: New Zealand Xmas Tree,100 Alemany Blvd,13,Sidewalk: Curb side : Cutout,Private,,9,Width 3ft,37.73581249,-122.4095397
28733,DPW Maintained,Magnolia grandiflora :: Southern Magnolia,1795X Evans Ave,23,Sidewalk: Curb side : Cutout,DPW,10/29/11 0:00,3,3x3,37.74497286,-122.3921056
127741,DPW Maintained,Ficus microcarpa nitida 'Green Gem' :: Indian Laurel Fig Tree 'Green Gem',1330 Leavenworth St,2,Sidewalk: Curb side : Cutout,Private,,13,Width 4ft,37.79345817,-122.4161317
262230,Section 806 (d),Lophostemon confertus :: Brisbane Box,42 Dorantes Ave,1,Sidewalk: Curb side : Cutout,Private,6/10/20 0:00,3,3x3,37.7460272,-122.4628529
134603,DPW Maintained,Platanus x hispanica :: Sycamore: London Plane,1412 Van Ness Ave,2,Sidewalk: Curb side : Cutout,Private,,11,Width 3ft,37.78887348,-122.4218514
67478,DPW Maintained,Prunus cerasifera :: Cherry Plum,1567 McAllister St,1,Sidewalk: Curb side : Cutout,Private,9/8/92 0:00,5,,37.77780502,-122.4377485
177664,DPW Maintained,Metrosideros excelsa :: New Zealand Xmas Tree,900 Olmstead St,1,Sidewalk: Curb side : Cutout,Private,,11,Width 3ft,37.72052787,-122.4106581
224832,DPW Maintained,Ficus microcarpa nitida 'Green Gem' :: Indian Laurel Fig Tree 'Green Gem',3751 23rd St,1,Sidewalk: Curb side : Cutout,Private,,17,Width 2ft,37.75329407,-122.4266532
218762,DPW Maintained,Tristaniopsis laurina :: Swamp Myrtle,44 Melrose Ave,1,Sidewalk: Curb side : Cutout,Private,,8,Width 3ft,37.73387619,-122.4430785
135698,DPW Maintained,Prunus cerasifera :: Cherry Plum,10 Walnut St,2,Sidewalk: Curb side : Yard,Private,,2,Width 4ft,37.7913092,-122.4492602
211859,DPW Maintained,Pittosporum undulatum :: Victorian Box,650 Mangels Ave,1,Sidewalk: Property side : Yard,Private,,14,Width 10ft,37.73311152,-122.4523094
20191,Permitted Site,Pittosporum undulatum :: Victorian Box,1550X Turk St,3,Sidewalk: Curb side : Cutout,Private,,18,3X3,37.78024798,-122.4346337
29237,DPW Maintained,Metrosideros excelsa :: New Zealand Xmas Tree,1902X 41st Ave,21,Sidewalk: Curb side : Cutout,DPW,,3,3X3,37.75124672,-122.4998218
5787,DPW Maintained,Lophostemon confertus :: Brisbane Box,545 Duboce Ave,2,Sidewalk: Curb side : Cutout,DPW,,12,3X3,37.76918806,-122.4323507
229053,DPW Maintained,Lophostemon confertus :: Brisbane Box,3531 22nd St,8,Sidewalk: Curb side : Cutout,Private,,11,Width 4ft,37.75494967,-122.4259709
120213,DPW Maintained,Metrosideros excelsa :: New Zealand Xmas Tree,498 25th Ave,2,Sidewalk: Curb side : Cutout,Private,,5,Width 3ft,37.78040842,-122.4846616
191631,DPW Maintained,Lophostemon confertus :: Brisbane Box,55 04th St,6,Sidewalk: Curb side : Cutout,Private,,15,Width 3ft,37.78514339,-122.4049167
13833,DPW Maintained,Platanus x hispanica :: Sycamore: London Plane,970 Market St,2,Sidewalk: Curb side : Cutout,DPW,,40,4x4,37.7829378,-122.4096711
241661,DPW Maintained,Tristaniopsis laurina :: Swamp Myrtle,169 Duncan St,1,Sidewalk: Curb side : Cutout,Private,,12,Width 3ft,37.74621473,-122.4238642
128360,DPW Maintained,Ficus microcarpa nitida 'Green Gem' :: Indian Laurel Fig Tree 'Green Gem',1335 Battery St,9,Sidewalk: Curb side : Cutout,Private,,15,Width 4ft,37.80335448,-122.4020953
